{
"type": "FeatureCollection",
"crs": { "type": "name", "properties": { "name": "urn:ogc:def:crs:OGC:1.3:CRS84" } },
"features": [
{ "type": "Feature", "properties": { "Name": "Sydney Hospital & Sydney Eye Hospital", "Address": "8 Macquarie Street", "Suburb": "Sydney", "Postcode": 2001, "lat": -33.794883, "lon": 151.268071, "SSC_CODE16": "10153", "SSC_NAME16": "Balgowlah" }, "geometry": { "type": "Point", "coordinates": [ 151.268071, -33.794882999127438 ] } },
{ "type": "Feature", "properties": { "Name": "St Vincents Hospital", "Address": "390 Victoria Street", "Suburb": "Darlinghurst", "Postcode": 2010, "lat": -33.888821, "lon": 151.213328, "SSC_CODE16": "13699", "SSC_NAME16": "Surry Hills" }, "geometry": { "type": "Point", "coordinates": [ 151.213328, -33.888820999126288 ] } },
{ "type": "Feature", "properties": { "Name": "St Vincents Hospital", "Address": "390 Victoria Street", "Suburb": "Darlinghurst", "Postcode": 2010, "lat": -33.879825, "lon": 151.21956, "SSC_CODE16": "11212", "SSC_NAME16": "Darlinghurst" }, "geometry": { "type": "Point", "coordinates": [ 151.21956, -33.879824999126392 ] } },
{ "type": "Feature", "properties": { "Name": "Sacred Heart Hospice", "Address": "170 Darlinghurst Road", "Suburb": "Darlinghurst", "Postcode": 2010, "lat": -33.888821, "lon": 151.213328, "SSC_CODE16": "13699", "SSC_NAME16": "Surry Hills" }, "geometry": { "type": "Point", "coordinates": [ 151.213328, -33.888820999126288 ] } },
{ "type": "Feature", "properties": { "Name": "Sacred Heart Hospice", "Address": "170 Darlinghurst Road", "Suburb": "Darlinghurst", "Postcode": 2010, "lat": -33.879825, "lon": 151.21956, "SSC_CODE16": "11212", "SSC_NAME16": "Darlinghurst" }, "geometry": { "type": "Point", "coordinates": [ 151.21956, -33.879824999126392 ] } },
{ "type": "Feature", "properties": { "Name": "War Memorial Hospital", "Address": "125 Birrell Street", "Suburb": "Waverley", "Postcode": 2024, "lat": -33.897955, "lon": 151.252059, "SSC_CODE16": "14200", "SSC_NAME16": "Waverley (NSW)" }, "geometry": { "type": "Point", "coordinates": [ 151.252059, -33.897954999126171 ] } },
{ "type": "Feature", "properties": { "Name": "War Memorial Hospital", "Address": "125 Birrell Street", "Suburb": "Waverley", "Postcode": 2024, "lat": -33.902328, "lon": 151.263838, "SSC_CODE16": "10594", "SSC_NAME16": "Bronte" }, "geometry": { "type": "Point", "coordinates": [ 151.263838, -33.902327999126108 ] } },
{ "type": "Feature", "properties": { "Name": "Sydney Childrens Hospital", "Address": "High Street", "Suburb": "Randwick", "Postcode": 2031, "lat": -33.911604, "lon": 151.254892, "SSC_CODE16": "11015", "SSC_NAME16": "Coogee (NSW)" }, "geometry": { "type": "Point", "coordinates": [ 151.254892, -33.911603999125994 ] } },
{ "type": "Feature", "properties": { "Name": "Sydney Childrens Hospital", "Address": "High Street", "Suburb": "Randwick", "Postcode": 2031, "lat": -33.912639, "lon": 151.262021, "SSC_CODE16": "10938", "SSC_NAME16": "Clovelly" }, "geometry": { "type": "Point", "coordinates": [ 151.262021, -33.912638999125988 ] } },
{ "type": "Feature", "properties": { "Name": "Sydney Childrens Hospital", "Address": "High Street", "Suburb": "Randwick", "Postcode": 2031, "lat": -33.920227, "lon": 151.242689, "SSC_CODE16": "13312", "SSC_NAME16": "Randwick" }, "geometry": { "type": "Point", "coordinates": [ 151.242689, -33.920226999125887 ] } },
{ "type": "Feature", "properties": { "Name": "Sydney Childrens Hospital", "Address": "High Street", "Suburb": "Randwick", "Postcode": 2031, "lat": -33.913164, "lon": 151.241993, "SSC_CODE16": "13312", "SSC_NAME16": "Randwick" }, "geometry": { "type": "Point", "coordinates": [ 151.241993, -33.913163999125977 ] } },
{ "type": "Feature", "properties": { "Name": "Royal Hospital for Women", "Address": "Barker Street", "Suburb": "Randwick", "Postcode": 2031, "lat": -33.911604, "lon": 151.254892, "SSC_CODE16": "11015", "SSC_NAME16": "Coogee (NSW)" }, "geometry": { "type": "Point", "coordinates": [ 151.254892, -33.911603999125994 ] } },
{ "type": "Feature", "properties": { "Name": "Royal Hospital for Women", "Address": "Barker Street", "Suburb": "Randwick", "Postcode": 2031, "lat": -33.912639, "lon": 151.262021, "SSC_CODE16": "10938", "SSC_NAME16": "Clovelly" }, "geometry": { "type": "Point", "coordinates": [ 151.262021, -33.912638999125988 ] } },
{ "type": "Feature", "properties": { "Name": "Royal Hospital for Women", "Address": "Barker Street", "Suburb": "Randwick", "Postcode": 2031, "lat": -33.920227, "lon": 151.242689, "SSC_CODE16": "13312", "SSC_NAME16": "Randwick" }, "geometry": { "type": "Point", "coordinates": [ 151.242689, -33.920226999125887 ] } },
{ "type": "Feature", "properties": { "Name": "Royal Hospital for Women", "Address": "Barker Street", "Suburb": "Randwick", "Postcode": 2031, "lat": -33.913164, "lon": 151.241993, "SSC_CODE16": "13312", "SSC_NAME16": "Randwick" }, "geometry": { "type": "Point", "coordinates": [ 151.241993, -33.913163999125977 ] } },
{ "type": "Feature", "properties": { "Name": "Prince of Wales Hospital", "Address": "Barker Street", "Suburb": "Randwick", "Postcode": 2031, "lat": -33.911604, "lon": 151.254892, "SSC_CODE16": "11015", "SSC_NAME16": "Coogee (NSW)" }, "geometry": { "type": "Point", "coordinates": [ 151.254892, -33.911603999125994 ] } },
{ "type": "Feature", "properties": { "Name": "Prince of Wales Hospital", "Address": "Barker Street", "Suburb": "Randwick", "Postcode": 2031, "lat": -33.912639, "lon": 151.262021, "SSC_CODE16": "10938", "SSC_NAME16": "Clovelly" }, "geometry": { "type": "Point", "coordinates": [ 151.262021, -33.912638999125988 ] } },
{ "type": "Feature", "properties": { "Name": "Prince of Wales Hospital", "Address": "Barker Street", "Suburb": "Randwick", "Postcode": 2031, "lat": -33.920227, "lon": 151.242689, "SSC_CODE16": "13312", "SSC_NAME16": "Randwick" }, "geometry": { "type": "Point", "coordinates": [ 151.242689, -33.920226999125887 ] } },
{ "type": "Feature", "properties": { "Name": "Prince of Wales Hospital", "Address": "Barker Street", "Suburb": "Randwick", "Postcode": 2031, "lat": -33.913164, "lon": 151.241993, "SSC_CODE16": "13312", "SSC_NAME16": "Randwick" }, "geometry": { "type": "Point", "coordinates": [ 151.241993, -33.913163999125977 ] } },
{ "type": "Feature", "properties": { "Name": "Balmain Hospital", "Address": "29 Booth Street", "Suburb": "Balmain", "Postcode": 2041, "lat": -33.853386, "lon": 151.180609, "SSC_CODE16": "10374", "SSC_NAME16": "Birchgrove" }, "geometry": { "type": "Point", "coordinates": [ 151.180609, -33.853385999126708 ] } },
{ "type": "Feature", "properties": { "Name": "Balmain Hospital", "Address": "29 Booth Street", "Suburb": "Balmain", "Postcode": 2041, "lat": -33.857833, "lon": 151.190598, "SSC_CODE16": "10165", "SSC_NAME16": "Balmain East" }, "geometry": { "type": "Point", "coordinates": [ 151.190598, -33.857832999126686 ] } },
{ "type": "Feature", "properties": { "Name": "Balmain Hospital", "Address": "29 Booth Street", "Suburb": "Balmain", "Postcode": 2041, "lat": -33.856498, "lon": 151.178009, "SSC_CODE16": "10164", "SSC_NAME16": "Balmain" }, "geometry": { "type": "Point", "coordinates": [ 151.178009, -33.856497999126674 ] } },
{ "type": "Feature", "properties": { "Name": "Royal Prince Alfred Hospital", "Address": "Missenden Road", "Suburb": "Camperdown", "Postcode": 2050, "lat": -33.88866, "lon": 151.177188, "SSC_CODE16": "10781", "SSC_NAME16": "Camperdown (NSW)" }, "geometry": { "type": "Point", "coordinates": [ 151.177188, -33.88865999912629 ] } },
{ "type": "Feature", "properties": { "Name": "Royal Prince Alfred Hospital", "Address": "Missenden Road", "Suburb": "Camperdown", "Postcode": 2050, "lat": -33.888668, "lon": 151.181531, "SSC_CODE16": "10781", "SSC_NAME16": "Camperdown (NSW)" }, "geometry": { "type": "Point", "coordinates": [ 151.181531, -33.88866799912627 ] } },
{ "type": "Feature", "properties": { "Name": "Royal North Shore Hospital", "Address": "Pacific Highway", "Suburb": "St Leonards", "Postcode": 2065, "lat": -33.82609, "lon": 151.199192, "SSC_CODE16": "11131", "SSC_NAME16": "Crows Nest (NSW)" }, "geometry": { "type": "Point", "coordinates": [ 151.199192, -33.826089999127042 ] } },
{ "type": "Feature", "properties": { "Name": "Royal North Shore Hospital", "Address": "Pacific Highway", "Suburb": "St Leonards", "Postcode": 2065, "lat": -33.828158, "lon": 151.196621, "SSC_CODE16": "14359", "SSC_NAME16": "Wollstonecraft" }, "geometry": { "type": "Point", "coordinates": [ 151.196621, -33.82815799912705 ] } },
{ "type": "Feature", "properties": { "Name": "Royal North Shore Hospital", "Address": "Pacific Highway", "Suburb": "St Leonards", "Postcode": 2065, "lat": -33.821588, "lon": 151.191396, "SSC_CODE16": "13642", "SSC_NAME16": "St Leonards (NSW)" }, "geometry": { "type": "Point", "coordinates": [ 151.191396, -33.821587999127104 ] } },
{ "type": "Feature", "properties": { "Name": "Royal North Shore Hospital", "Address": "Pacific Highway", "Suburb": "St Leonards", "Postcode": 2065, "lat": -33.817299, "lon": 151.20116, "SSC_CODE16": "12898", "SSC_NAME16": "Naremburn" }, "geometry": { "type": "Point", "coordinates": [ 151.20116, -33.817298999127168 ] } },
{ "type": "Feature", "properties": { "Name": "Royal North Shore Hospital", "Address": "Pacific Highway", "Suburb": "St Leonards", "Postcode": 2065, "lat": -33.831958, "lon": 151.186129, "SSC_CODE16": "11770", "SSC_NAME16": "Greenwich" }, "geometry": { "type": "Point", "coordinates": [ 151.186129, -33.831957999126992 ] } },
{ "type": "Feature", "properties": { "Name": "Royal North Shore Hospital", "Address": "Pacific Highway", "Suburb": "St Leonards", "Postcode": 2065, "lat": -33.823248, "lon": 151.195504, "SSC_CODE16": "13642", "SSC_NAME16": "St Leonards (NSW)" }, "geometry": { "type": "Point", "coordinates": [ 151.195504, -33.823247999127105 ] } },
{ "type": "Feature", "properties": { "Name": "Greenwich Hospital", "Address": "River Road", "Suburb": "Greenwich", "Postcode": 2065, "lat": -33.82609, "lon": 151.199192, "SSC_CODE16": "11131", "SSC_NAME16": "Crows Nest (NSW)" }, "geometry": { "type": "Point", "coordinates": [ 151.199192, -33.826089999127042 ] } },
{ "type": "Feature", "properties": { "Name": "Greenwich Hospital", "Address": "River Road", "Suburb": "Greenwich", "Postcode": 2065, "lat": -33.828158, "lon": 151.196621, "SSC_CODE16": "14359", "SSC_NAME16": "Wollstonecraft" }, "geometry": { "type": "Point", "coordinates": [ 151.196621, -33.82815799912705 ] } },
{ "type": "Feature", "properties": { "Name": "Greenwich Hospital", "Address": "River Road", "Suburb": "Greenwich", "Postcode": 2065, "lat": -33.821588, "lon": 151.191396, "SSC_CODE16": "13642", "SSC_NAME16": "St Leonards (NSW)" }, "geometry": { "type": "Point", "coordinates": [ 151.191396, -33.821587999127104 ] } },
{ "type": "Feature", "properties": { "Name": "Greenwich Hospital", "Address": "River Road", "Suburb": "Greenwich", "Postcode": 2065, "lat": -33.817299, "lon": 151.20116, "SSC_CODE16": "12898", "SSC_NAME16": "Naremburn" }, "geometry": { "type": "Point", "coordinates": [ 151.20116, -33.817298999127168 ] } },
{ "type": "Feature", "properties": { "Name": "Greenwich Hospital", "Address": "River Road", "Suburb": "Greenwich", "Postcode": 2065, "lat": -33.831958, "lon": 151.186129, "SSC_CODE16": "11770", "SSC_NAME16": "Greenwich" }, "geometry": { "type": "Point", "coordinates": [ 151.186129, -33.831957999126992 ] } },
{ "type": "Feature", "properties": { "Name": "Greenwich Hospital", "Address": "River Road", "Suburb": "Greenwich", "Postcode": 2065, "lat": -33.823248, "lon": 151.195504, "SSC_CODE16": "13642", "SSC_NAME16": "St Leonards (NSW)" }, "geometry": { "type": "Point", "coordinates": [ 151.195504, -33.823247999127105 ] } },
{ "type": "Feature", "properties": { "Name": "Neringah Hospital", "Address": "4-12 Neringah Avenue South", "Suburb": "Wahroonga", "Postcode": 2076, "lat": -33.702704, "lon": 151.123179, "SSC_CODE16": "13015", "SSC_NAME16": "North Wahroonga" }, "geometry": { "type": "Point", "coordinates": [ 151.123179, -33.702703999128602 ] } },
{ "type": "Feature", "properties": { "Name": "Neringah Hospital", "Address": "4-12 Neringah Avenue South", "Suburb": "Wahroonga", "Postcode": 2076, "lat": -33.716405, "lon": 151.118119, "SSC_CODE16": "14085", "SSC_NAME16": "Wahroonga" }, "geometry": { "type": "Point", "coordinates": [ 151.118119, -33.71640499912845 ] } },
{ "type": "Feature", "properties": { "Name": "Neringah Hospital", "Address": "4-12 Neringah Avenue South", "Suburb": "Wahroonga", "Postcode": 2076, "lat": -33.720999, "lon": 151.097331, "SSC_CODE16": "12976", "SSC_NAME16": "Normanhurst" }, "geometry": { "type": "Point", "coordinates": [ 151.097331, -33.720998999128369 ] } },
{ "type": "Feature", "properties": { "Name": "Hornsby Ku-ring-gai Hospital", "Address": "Palmerston Rd", "Suburb": "Hornsby", "Postcode": 2077, "lat": -33.709541, "lon": 151.104136, "SSC_CODE16": "14086", "SSC_NAME16": "Waitara" }, "geometry": { "type": "Point", "coordinates": [ 151.104136, -33.709540999128507 ] } },
{ "type": "Feature", "properties": { "Name": "Hornsby Ku-ring-gai Hospital", "Address": "Palmerston Rd", "Suburb": "Hornsby", "Postcode": 2077, "lat": -33.670086, "lon": 151.095503, "SSC_CODE16": "11937", "SSC_NAME16": "Hornsby Heights" }, "geometry": { "type": "Point", "coordinates": [ 151.095503, -33.670085999129036 ] } },
{ "type": "Feature", "properties": { "Name": "Hornsby Ku-ring-gai Hospital", "Address": "Palmerston Rd", "Suburb": "Hornsby", "Postcode": 2077, "lat": -33.687484, "lon": 151.108685, "SSC_CODE16": "10103", "SSC_NAME16": "Asquith" }, "geometry": { "type": "Point", "coordinates": [ 151.108685, -33.687483999128823 ] } },
{ "type": "Feature", "properties": { "Name": "Hornsby Ku-ring-gai Hospital", "Address": "Palmerston Rd", "Suburb": "Hornsby", "Postcode": 2077, "lat": -33.704748, "lon": 151.098696, "SSC_CODE16": "11936", "SSC_NAME16": "Hornsby" }, "geometry": { "type": "Point", "coordinates": [ 151.098696, -33.704747999128593 ] } },
{ "type": "Feature", "properties": { "Name": "Manly Hospital", "Address": "Darley Road", "Suburb": "Manly", "Postcode": 2095, "lat": -33.797144, "lon": 151.28804, "SSC_CODE16": "12475", "SSC_NAME16": "Manly (NSW)" }, "geometry": { "type": "Point", "coordinates": [ 151.28804, -33.797143999127421 ] } },
{ "type": "Feature", "properties": { "Name": "Manly Hospital", "Address": "Darley Road", "Suburb": "Manly", "Postcode": 2095, "lat": -33.801822, "lon": 151.288876, "SSC_CODE16": "12475", "SSC_NAME16": "Manly (NSW)" }, "geometry": { "type": "Point", "coordinates": [ 151.288876, -33.80182199912737 ] } },
{ "type": "Feature", "properties": { "Name": "Mona Vale Hospital", "Address": "Coronation Street", "Suburb": "Mona Vale", "Postcode": 2103, "lat": -33.67707, "lon": 151.300316, "SSC_CODE16": "12672", "SSC_NAME16": "Mona Vale" }, "geometry": { "type": "Point", "coordinates": [ 151.300316, -33.677069999128946 ] } },
{ "type": "Feature", "properties": { "Name": "Royal Rehabilitation Hospital - Coorabel\/Moorong", "Address": "227 Morrison Road", "Suburb": "Ryde", "Postcode": 2112, "lat": -33.797177, "lon": 151.097546, "SSC_CODE16": "11239", "SSC_NAME16": "Denistone East" }, "geometry": { "type": "Point", "coordinates": [ 151.097546, -33.797176999127423 ] } },
{ "type": "Feature", "properties": { "Name": "Royal Rehabilitation Hospital - Coorabel\/Moorong", "Address": "227 Morrison Road", "Suburb": "Ryde", "Postcode": 2112, "lat": -33.812953, "lon": 151.104942, "SSC_CODE16": "13454", "SSC_NAME16": "Ryde" }, "geometry": { "type": "Point", "coordinates": [ 151.104942, -33.812952999127234 ] } },
{ "type": "Feature", "properties": { "Name": "Royal Rehabilitation Hospital - Coorabel\/Moorong", "Address": "227 Morrison Road", "Suburb": "Ryde", "Postcode": 2112, "lat": -33.824735, "lon": 151.112549, "SSC_CODE16": "13277", "SSC_NAME16": "Putney" }, "geometry": { "type": "Point", "coordinates": [ 151.112549, -33.824734999127081 ] } },
{ "type": "Feature", "properties": { "Name": "Lottie Stewart Hospital and Aged Care", "Address": "40 Stewart Street", "Suburb": "Dundas", "Postcode": 2117, "lat": -33.799405, "lon": 151.044189, "SSC_CODE16": "11312", "SSC_NAME16": "Dundas (NSW)" }, "geometry": { "type": "Point", "coordinates": [ 151.044189, -33.799404999127404 ] } },
{ "type": "Feature", "properties": { "Name": "Lottie Stewart Hospital and Aged Care", "Address": "40 Stewart Street", "Suburb": "Dundas", "Postcode": 2117, "lat": -33.78724, "lon": 151.061185, "SSC_CODE16": "10818", "SSC_NAME16": "Carlingford" }, "geometry": { "type": "Point", "coordinates": [ 151.061185, -33.78723999912755 ] } },
{ "type": "Feature", "properties": { "Name": "Lottie Stewart Hospital and Aged Care", "Address": "40 Stewart Street", "Suburb": "Dundas", "Postcode": 2117, "lat": -33.795986, "lon": 151.045106, "SSC_CODE16": "13782", "SSC_NAME16": "Telopea" }, "geometry": { "type": "Point", "coordinates": [ 151.045106, -33.795985999127453 ] } },
{ "type": "Feature", "properties": { "Name": "Lottie Stewart Hospital and Aged Care", "Address": "40 Stewart Street", "Suburb": "Dundas", "Postcode": 2117, "lat": -33.796298, "lon": 151.026314, "SSC_CODE16": "13063", "SSC_NAME16": "Oatlands (NSW)" }, "geometry": { "type": "Point", "coordinates": [ 151.026314, -33.796297999127439 ] } },
{ "type": "Feature", "properties": { "Name": "Ryde Hospital", "Address": "Denistone Road", "Suburb": "Eastwood", "Postcode": 2122, "lat": -33.783971, "lon": 151.094241, "SSC_CODE16": "11369", "SSC_NAME16": "Eastwood (NSW)" }, "geometry": { "type": "Point", "coordinates": [ 151.094241, -33.783970999127575 ] } },
{ "type": "Feature", "properties": { "Name": "Ryde Hospital", "Address": "Denistone Road", "Suburb": "Eastwood", "Postcode": 2122, "lat": -33.789986, "lon": 151.080914, "SSC_CODE16": "11369", "SSC_NAME16": "Eastwood (NSW)" }, "geometry": { "type": "Point", "coordinates": [ 151.080914, -33.789985999127516 ] } },
{ "type": "Feature", "properties": { "Name": "St Catherines Villa Nursing Home", "Address": "162-166 Balaclava Road", "Suburb": "Eastwood", "Postcode": 2122, "lat": -33.783971, "lon": 151.094241, "SSC_CODE16": "11369", "SSC_NAME16": "Eastwood (NSW)" }, "geometry": { "type": "Point", "coordinates": [ 151.094241, -33.783970999127575 ] } },
{ "type": "Feature", "properties": { "Name": "St Catherines Villa Nursing Home", "Address": "162-166 Balaclava Road", "Suburb": "Eastwood", "Postcode": 2122, "lat": -33.789986, "lon": 151.080914, "SSC_CODE16": "11369", "SSC_NAME16": "Eastwood (NSW)" }, "geometry": { "type": "Point", "coordinates": [ 151.080914, -33.789985999127516 ] } },
{ "type": "Feature", "properties": { "Name": "Concord Repatriation General Hospital", "Address": "Hospital Rd", "Suburb": "Concord", "Postcode": 2139, "lat": -33.837702, "lon": 151.095046, "SSC_CODE16": "11000", "SSC_NAME16": "Concord West" }, "geometry": { "type": "Point", "coordinates": [ 151.095046, -33.837701999126907 ] } },
{ "type": "Feature", "properties": { "Name": "Auburn Hospital & Community Health Services", "Address": "Hargrave Road", "Suburb": "Auburn", "Postcode": 2144, "lat": -33.849322, "lon": 151.033421, "SSC_CODE16": "10106", "SSC_NAME16": "Auburn (NSW)" }, "geometry": { "type": "Point", "coordinates": [ 151.033421, -33.849321999126772 ] } },
{ "type": "Feature", "properties": { "Name": "St Josephs Hospital", "Address": "Normanby Road", "Suburb": "Auburn", "Postcode": 2144, "lat": -33.849322, "lon": 151.033421, "SSC_CODE16": "10106", "SSC_NAME16": "Auburn (NSW)" }, "geometry": { "type": "Point", "coordinates": [ 151.033421, -33.849321999126772 ] } },
{ "type": "Feature", "properties": { "Name": "Westmead Hospital", "Address": "Cnr Hawkesbury & Darcy Road", "Suburb": "Westmead", "Postcode": 2145, "lat": -33.823892, "lon": 150.969376, "SSC_CODE16": "13599", "SSC_NAME16": "South Wentworthville" }, "geometry": { "type": "Point", "coordinates": [ 150.969376, -33.823891999127078 ] } },
{ "type": "Feature", "properties": { "Name": "Westmead Hospital", "Address": "Cnr Hawkesbury & Darcy Road", "Suburb": "Westmead", "Postcode": 2145, "lat": -33.805922, "lon": 150.970183, "SSC_CODE16": "14228", "SSC_NAME16": "Wentworthville" }, "geometry": { "type": "Point", "coordinates": [ 150.970183, -33.8059219991273 ] } },
{ "type": "Feature", "properties": { "Name": "Westmead Hospital", "Address": "Cnr Hawkesbury & Darcy Road", "Suburb": "Westmead", "Postcode": 2145, "lat": -33.829667, "lon": 150.951452, "SSC_CODE16": "11781", "SSC_NAME16": "Greystanes" }, "geometry": { "type": "Point", "coordinates": [ 150.951452, -33.829666999127014 ] } },
{ "type": "Feature", "properties": { "Name": "Westmead Hospital", "Address": "Cnr Hawkesbury & Darcy Road", "Suburb": "Westmead", "Postcode": 2145, "lat": -33.821944, "lon": 150.923752, "SSC_CODE16": "13181", "SSC_NAME16": "Pemulwuy" }, "geometry": { "type": "Point", "coordinates": [ 150.923752, -33.821943999127114 ] } },
{ "type": "Feature", "properties": { "Name": "Westmead Hospital", "Address": "Cnr Hawkesbury & Darcy Road", "Suburb": "Westmead", "Postcode": 2145, "lat": -33.801912, "lon": 150.955614, "SSC_CODE16": "13182", "SSC_NAME16": "Pendle Hill" }, "geometry": { "type": "Point", "coordinates": [ 150.955614, -33.80191199912737 ] } },
{ "type": "Feature", "properties": { "Name": "Westmead Hospital", "Address": "Cnr Hawkesbury & Darcy Road", "Suburb": "Westmead", "Postcode": 2145, "lat": -33.799843, "lon": 150.947276, "SSC_CODE16": "11636", "SSC_NAME16": "Girraween (NSW)" }, "geometry": { "type": "Point", "coordinates": [ 150.947276, -33.799842999127407 ] } },
{ "type": "Feature", "properties": { "Name": "Westmead Hospital", "Address": "Cnr Hawkesbury & Darcy Road", "Suburb": "Westmead", "Postcode": 2145, "lat": -33.82066, "lon": 150.990511, "SSC_CODE16": "12538", "SSC_NAME16": "Mays Hill" }, "geometry": { "type": "Point", "coordinates": [ 150.990511, -33.820659999127123 ] } },
{ "type": "Feature", "properties": { "Name": "Westmead Hospital", "Address": "Cnr Hawkesbury & Darcy Road", "Suburb": "Westmead", "Postcode": 2145, "lat": -33.805332, "lon": 150.986608, "SSC_CODE16": "14261", "SSC_NAME16": "Westmead" }, "geometry": { "type": "Point", "coordinates": [ 150.986608, -33.805331999127333 ] } },
{ "type": "Feature", "properties": { "Name": "The Childrens Hospital at Westmead", "Address": "Cnr Hawkesbury Rd and Hainsworth St", "Suburb": "Westmead", "Postcode": 2145, "lat": -33.823892, "lon": 150.969376, "SSC_CODE16": "13599", "SSC_NAME16": "South Wentworthville" }, "geometry": { "type": "Point", "coordinates": [ 150.969376, -33.823891999127078 ] } },
{ "type": "Feature", "properties": { "Name": "The Childrens Hospital at Westmead", "Address": "Cnr Hawkesbury Rd and Hainsworth St", "Suburb": "Westmead", "Postcode": 2145, "lat": -33.805922, "lon": 150.970183, "SSC_CODE16": "14228", "SSC_NAME16": "Wentworthville" }, "geometry": { "type": "Point", "coordinates": [ 150.970183, -33.8059219991273 ] } },
{ "type": "Feature", "properties": { "Name": "The Childrens Hospital at Westmead", "Address": "Cnr Hawkesbury Rd and Hainsworth St", "Suburb": "Westmead", "Postcode": 2145, "lat": -33.829667, "lon": 150.951452, "SSC_CODE16": "11781", "SSC_NAME16": "Greystanes" }, "geometry": { "type": "Point", "coordinates": [ 150.951452, -33.829666999127014 ] } },
{ "type": "Feature", "properties": { "Name": "The Childrens Hospital at Westmead", "Address": "Cnr Hawkesbury Rd and Hainsworth St", "Suburb": "Westmead", "Postcode": 2145, "lat": -33.821944, "lon": 150.923752, "SSC_CODE16": "13181", "SSC_NAME16": "Pemulwuy" }, "geometry": { "type": "Point", "coordinates": [ 150.923752, -33.821943999127114 ] } },
{ "type": "Feature", "properties": { "Name": "The Childrens Hospital at Westmead", "Address": "Cnr Hawkesbury Rd and Hainsworth St", "Suburb": "Westmead", "Postcode": 2145, "lat": -33.801912, "lon": 150.955614, "SSC_CODE16": "13182", "SSC_NAME16": "Pendle Hill" }, "geometry": { "type": "Point", "coordinates": [ 150.955614, -33.80191199912737 ] } },
{ "type": "Feature", "properties": { "Name": "The Childrens Hospital at Westmead", "Address": "Cnr Hawkesbury Rd and Hainsworth St", "Suburb": "Westmead", "Postcode": 2145, "lat": -33.799843, "lon": 150.947276, "SSC_CODE16": "11636", "SSC_NAME16": "Girraween (NSW)" }, "geometry": { "type": "Point", "coordinates": [ 150.947276, -33.799842999127407 ] } },
{ "type": "Feature", "properties": { "Name": "The Childrens Hospital at Westmead", "Address": "Cnr Hawkesbury Rd and Hainsworth St", "Suburb": "Westmead", "Postcode": 2145, "lat": -33.82066, "lon": 150.990511, "SSC_CODE16": "12538", "SSC_NAME16": "Mays Hill" }, "geometry": { "type": "Point", "coordinates": [ 150.990511, -33.820659999127123 ] } },
{ "type": "Feature", "properties": { "Name": "The Childrens Hospital at Westmead", "Address": "Cnr Hawkesbury Rd and Hainsworth St", "Suburb": "Westmead", "Postcode": 2145, "lat": -33.805332, "lon": 150.986608, "SSC_CODE16": "14261", "SSC_NAME16": "Westmead" }, "geometry": { "type": "Point", "coordinates": [ 150.986608, -33.805331999127333 ] } },
{ "type": "Feature", "properties": { "Name": "Blacktown Hospital", "Address": "Blacktown Road", "Suburb": "Blacktown", "Postcode": 2148, "lat": -33.746168, "lon": 150.898338, "SSC_CODE16": "12485", "SSC_NAME16": "Marayong" }, "geometry": { "type": "Point", "coordinates": [ 150.898338, -33.746167999128069 ] } },
{ "type": "Feature", "properties": { "Name": "Blacktown Hospital", "Address": "Blacktown Road", "Suburb": "Blacktown", "Postcode": 2148, "lat": -33.797537, "lon": 150.879863, "SSC_CODE16": "11957", "SSC_NAME16": "Huntingwood" }, "geometry": { "type": "Point", "coordinates": [ 150.879863, -33.797536999127402 ] } },
{ "type": "Feature", "properties": { "Name": "Blacktown Hospital", "Address": "Blacktown Road", "Suburb": "Blacktown", "Postcode": 2148, "lat": -33.801553, "lon": 150.916198, "SSC_CODE16": "13266", "SSC_NAME16": "Prospect (NSW)" }, "geometry": { "type": "Point", "coordinates": [ 150.916198, -33.801552999127374 ] } },
{ "type": "Feature", "properties": { "Name": "Blacktown Hospital", "Address": "Blacktown Road", "Suburb": "Blacktown", "Postcode": 2148, "lat": -33.787266, "lon": 150.871959, "SSC_CODE16": "10087", "SSC_NAME16": "Arndell Park" }, "geometry": { "type": "Point", "coordinates": [ 150.871959, -33.787265999127548 ] } },
{ "type": "Feature", "properties": { "Name": "Blacktown Hospital", "Address": "Blacktown Road", "Suburb": "Blacktown", "Postcode": 2148, "lat": -33.745736, "lon": 150.904598, "SSC_CODE16": "12150", "SSC_NAME16": "Kings Park (NSW)" }, "geometry": { "type": "Point", "coordinates": [ 150.904598, -33.745735999128065 ] } },
{ "type": "Feature", "properties": { "Name": "Blacktown Hospital", "Address": "Blacktown Road", "Suburb": "Blacktown", "Postcode": 2148, "lat": -33.770184, "lon": 150.908501, "SSC_CODE16": "10397", "SSC_NAME16": "Blacktown" }, "geometry": { "type": "Point", "coordinates": [ 150.908501, -33.770183999127767 ] } },
{ "type": "Feature", "properties": { "Name": "Blacktown Hospital", "Address": "Blacktown Road", "Suburb": "Blacktown", "Postcode": 2148, "lat": -33.770162, "lon": 150.905148, "SSC_CODE16": "10397", "SSC_NAME16": "Blacktown" }, "geometry": { "type": "Point", "coordinates": [ 150.905148, -33.770161999127758 ] } },
{ "type": "Feature", "properties": { "Name": "Fairfield Hospital", "Address": "Cnr Polding Street & Prairievale Road", "Suburb": "Fairfield", "Postcode": 2165, "lat": -33.868529, "lon": 150.955512, "SSC_CODE16": "11477", "SSC_NAME16": "Fairfield (NSW)" }, "geometry": { "type": "Point", "coordinates": [ 150.955512, -33.868528999126532 ] } },
{ "type": "Feature", "properties": { "Name": "Fairfield Hospital", "Address": "Cnr Polding Street & Prairievale Road", "Suburb": "Fairfield", "Postcode": 2165, "lat": -33.864603, "lon": 150.938451, "SSC_CODE16": "11479", "SSC_NAME16": "Fairfield Heights" }, "geometry": { "type": "Point", "coordinates": [ 150.938451, -33.864602999126582 ] } },
{ "type": "Feature", "properties": { "Name": "Fairfield Hospital", "Address": "Cnr Polding Street & Prairievale Road", "Suburb": "Fairfield", "Postcode": 2165, "lat": -33.869449, "lon": 150.977528, "SSC_CODE16": "11478", "SSC_NAME16": "Fairfield East" }, "geometry": { "type": "Point", "coordinates": [ 150.977528, -33.869448999126533 ] } },
{ "type": "Feature", "properties": { "Name": "Fairfield Hospital", "Address": "Cnr Polding Street & Prairievale Road", "Suburb": "Fairfield", "Postcode": 2165, "lat": -33.868955, "lon": 150.922057, "SSC_CODE16": "11480", "SSC_NAME16": "Fairfield West" }, "geometry": { "type": "Point", "coordinates": [ 150.922057, -33.868954999126537 ] } },
{ "type": "Feature", "properties": { "Name": "Liverpool Hospital", "Address": "Cnr Elizabeth & Goulburn Street", "Suburb": "Liverpool", "Postcode": 2170, "lat": -33.916829, "lon": 150.961662, "SSC_CODE16": "10908", "SSC_NAME16": "Chipping Norton" }, "geometry": { "type": "Point", "coordinates": [ 150.961662, -33.91682899912594 ] } },
{ "type": "Feature", "properties": { "Name": "Liverpool Hospital", "Address": "Cnr Elizabeth & Goulburn Street", "Suburb": "Liverpool", "Postcode": 2170, "lat": -33.950422, "lon": 150.909367, "SSC_CODE16": "10852", "SSC_NAME16": "Casula" }, "geometry": { "type": "Point", "coordinates": [ 150.909367, -33.950421999125538 ] } },
{ "type": "Feature", "properties": { "Name": "Liverpool Hospital", "Address": "Cnr Elizabeth & Goulburn Street", "Suburb": "Liverpool", "Postcode": 2170, "lat": -33.94735, "lon": 150.907753, "SSC_CODE16": "10852", "SSC_NAME16": "Casula" }, "geometry": { "type": "Point", "coordinates": [ 150.907753, -33.947349999125557 ] } },
{ "type": "Feature", "properties": { "Name": "Liverpool Hospital", "Address": "Cnr Elizabeth & Goulburn Street", "Suburb": "Liverpool", "Postcode": 2170, "lat": -33.933376, "lon": 150.906608, "SSC_CODE16": "12361", "SSC_NAME16": "Liverpool" }, "geometry": { "type": "Point", "coordinates": [ 150.906608, -33.933375999125722 ] } },
{ "type": "Feature", "properties": { "Name": "Liverpool Hospital", "Address": "Cnr Elizabeth & Goulburn Street", "Suburb": "Liverpool", "Postcode": 2170, "lat": -33.942903, "lon": 150.872145, "SSC_CODE16": "13260", "SSC_NAME16": "Prestons" }, "geometry": { "type": "Point", "coordinates": [ 150.872145, -33.942902999125607 ] } },
{ "type": "Feature", "properties": { "Name": "Liverpool Hospital", "Address": "Cnr Elizabeth & Goulburn Street", "Suburb": "Liverpool", "Postcode": 2170, "lat": -33.913423, "lon": 150.932752, "SSC_CODE16": "14177", "SSC_NAME16": "Warwick Farm" }, "geometry": { "type": "Point", "coordinates": [ 150.932752, -33.913422999125984 ] } },
{ "type": "Feature", "properties": { "Name": "Liverpool Hospital", "Address": "Cnr Elizabeth & Goulburn Street", "Suburb": "Liverpool", "Postcode": 2170, "lat": -33.918951, "lon": 150.923868, "SSC_CODE16": "12361", "SSC_NAME16": "Liverpool" }, "geometry": { "type": "Point", "coordinates": [ 150.923868, -33.918950999125911 ] } },
{ "type": "Feature", "properties": { "Name": "Liverpool Hospital", "Address": "Cnr Elizabeth & Goulburn Street", "Suburb": "Liverpool", "Postcode": 2170, "lat": -33.948113, "lon": 150.953727, "SSC_CODE16": "11844", "SSC_NAME16": "Hammondville" }, "geometry": { "type": "Point", "coordinates": [ 150.953727, -33.948112999125549 ] } },
{ "type": "Feature", "properties": { "Name": "Liverpool Hospital", "Address": "Cnr Elizabeth & Goulburn Street", "Suburb": "Liverpool", "Postcode": 2170, "lat": -33.933805, "lon": 150.953602, "SSC_CODE16": "12712", "SSC_NAME16": "Moorebank" }, "geometry": { "type": "Point", "coordinates": [ 150.953602, -33.933804999125741 ] } },
{ "type": "Feature", "properties": { "Name": "Liverpool Hospital", "Address": "Cnr Elizabeth & Goulburn Street", "Suburb": "Liverpool", "Postcode": 2170, "lat": -33.931947, "lon": 150.896105, "SSC_CODE16": "12422", "SSC_NAME16": "Lurnea" }, "geometry": { "type": "Point", "coordinates": [ 150.896105, -33.931946999125742 ] } },
{ "type": "Feature", "properties": { "Name": "Liverpool Hospital", "Address": "Cnr Elizabeth & Goulburn Street", "Suburb": "Liverpool", "Postcode": 2170, "lat": -33.894817, "lon": 150.90304, "SSC_CODE16": "12785", "SSC_NAME16": "Mount Pritchard" }, "geometry": { "type": "Point", "coordinates": [ 150.90304, -33.894816999126206 ] } },
{ "type": "Feature", "properties": { "Name": "Liverpool Hospital", "Address": "Cnr Elizabeth & Goulburn Street", "Suburb": "Liverpool", "Postcode": 2170, "lat": -33.92505, "lon": 150.924429, "SSC_CODE16": "12361", "SSC_NAME16": "Liverpool" }, "geometry": { "type": "Point", "coordinates": [ 150.924429, -33.925049999125825 ] } },
{ "type": "Feature", "properties": { "Name": "Braeside Hospital", "Address": "Locked Bag 82 Wetherill Park 1851<br\/>340 Prairie Vale Road", "Suburb": "Prairiewood", "Postcode": 2176, "lat": -33.885824, "lon": 150.905403, "SSC_CODE16": "13641", "SSC_NAME16": "St Johns Park" }, "geometry": { "type": "Point", "coordinates": [ 150.905403, -33.885823999126323 ] } },
{ "type": "Feature", "properties": { "Name": "Braeside Hospital", "Address": "Locked Bag 82 Wetherill Park 1851<br\/>340 Prairie Vale Road", "Suburb": "Prairiewood", "Postcode": 2176, "lat": -33.867342, "lon": 150.90213, "SSC_CODE16": "13258", "SSC_NAME16": "Prairiewood" }, "geometry": { "type": "Point", "coordinates": [ 150.90213, -33.867341999126545 ] } },
{ "type": "Feature", "properties": { "Name": "Braeside Hospital", "Address": "Locked Bag 82 Wetherill Park 1851<br\/>340 Prairie Vale Road", "Suburb": "Prairiewood", "Postcode": 2176, "lat": -33.86626, "lon": 150.88415, "SSC_CODE16": "10515", "SSC_NAME16": "Bossley Park" }, "geometry": { "type": "Point", "coordinates": [ 150.88415, -33.866259999126569 ] } },
{ "type": "Feature", "properties": { "Name": "Braeside Hospital", "Address": "Locked Bag 82 Wetherill Park 1851<br\/>340 Prairie Vale Road", "Suburb": "Prairiewood", "Postcode": 2176, "lat": -33.877538, "lon": 150.867768, "SSC_CODE16": "10002", "SSC_NAME16": "Abbotsbury" }, "geometry": { "type": "Point", "coordinates": [ 150.867768, -33.877537999126432 ] } },
{ "type": "Feature", "properties": { "Name": "Braeside Hospital", "Address": "Locked Bag 82 Wetherill Park 1851<br\/>340 Prairie Vale Road", "Suburb": "Prairiewood", "Postcode": 2176, "lat": -33.877057, "lon": 150.875292, "SSC_CODE16": "11377", "SSC_NAME16": "Edensor Park" }, "geometry": { "type": "Point", "coordinates": [ 150.875292, -33.87705699912641 ] } },
{ "type": "Feature", "properties": { "Name": "Braeside Hospital", "Address": "Locked Bag 82 Wetherill Park 1851<br\/>340 Prairie Vale Road", "Suburb": "Prairiewood", "Postcode": 2176, "lat": -33.873966, "lon": 150.90888, "SSC_CODE16": "14089", "SSC_NAME16": "Wakeley" }, "geometry": { "type": "Point", "coordinates": [ 150.90888, -33.873965999126483 ] } },
{ "type": "Feature", "properties": { "Name": "Braeside Hospital", "Address": "Locked Bag 82 Wetherill Park 1851<br\/>340 Prairie Vale Road", "Suburb": "Prairiewood", "Postcode": 2176, "lat": -33.872187, "lon": 150.889408, "SSC_CODE16": "11761", "SSC_NAME16": "Greenfield Park" }, "geometry": { "type": "Point", "coordinates": [ 150.889408, -33.872186999126491 ] } },
{ "type": "Feature", "properties": { "Name": "Canterbury Hospital", "Address": "Canterbury Road", "Suburb": "Campsie", "Postcode": 2194, "lat": -33.914373, "lon": 151.103465, "SSC_CODE16": "10782", "SSC_NAME16": "Campsie" }, "geometry": { "type": "Point", "coordinates": [ 151.103465, -33.914372999125952 ] } },
{ "type": "Feature", "properties": { "Name": "Bankstown Lidcombe Hospital", "Address": "Eldridge Road", "Suburb": "Bankstown", "Postcode": 2200, "lat": -33.917157, "lon": 151.047838, "SSC_CODE16": "12774", "SSC_NAME16": "Mount Lewis" }, "geometry": { "type": "Point", "coordinates": [ 151.047838, -33.917156999125943 ] } },
{ "type": "Feature", "properties": { "Name": "Bankstown Lidcombe Hospital", "Address": "Eldridge Road", "Suburb": "Bankstown", "Postcode": 2200, "lat": -33.920032, "lon": 150.995041, "SSC_CODE16": "10181", "SSC_NAME16": "Bankstown Aerodrome" }, "geometry": { "type": "Point", "coordinates": [ 150.995041, -33.920031999125882 ] } },
{ "type": "Feature", "properties": { "Name": "Bankstown Lidcombe Hospital", "Address": "Eldridge Road", "Suburb": "Bankstown", "Postcode": 2200, "lat": -33.904622, "lon": 151.039298, "SSC_CODE16": "11757", "SSC_NAME16": "Greenacre" }, "geometry": { "type": "Point", "coordinates": [ 151.039298, -33.904621999126093 ] } },
{ "type": "Feature", "properties": { "Name": "Bankstown Lidcombe Hospital", "Address": "Eldridge Road", "Suburb": "Bankstown", "Postcode": 2200, "lat": -33.922034, "lon": 151.011619, "SSC_CODE16": "11001", "SSC_NAME16": "Condell Park" }, "geometry": { "type": "Point", "coordinates": [ 151.011619, -33.922033999125858 ] } },
{ "type": "Feature", "properties": { "Name": "Bankstown Lidcombe Hospital", "Address": "Eldridge Road", "Suburb": "Bankstown", "Postcode": 2200, "lat": -33.919539, "lon": 151.034909, "SSC_CODE16": "10180", "SSC_NAME16": "Bankstown" }, "geometry": { "type": "Point", "coordinates": [ 151.034909, -33.919538999125891 ] } },
{ "type": "Feature", "properties": { "Name": "Bankstown Lidcombe Hospital", "Address": "Eldridge Road", "Suburb": "Bankstown", "Postcode": 2200, "lat": -33.916017, "lon": 151.038538, "SSC_CODE16": "10180", "SSC_NAME16": "Bankstown" }, "geometry": { "type": "Point", "coordinates": [ 151.038538, -33.916016999125937 ] } },
{ "type": "Feature", "properties": { "Name": "Bankstown Lidcombe Hospital", "Address": "Eldridge Road", "Suburb": "Bankstown", "Postcode": 2200, "lat": -33.916293, "lon": 151.005545, "SSC_CODE16": "14453", "SSC_NAME16": "Yagoona" }, "geometry": { "type": "Point", "coordinates": [ 151.005545, -33.916292999125957 ] } },
{ "type": "Feature", "properties": { "Name": "St George Hospital", "Address": "Belgrave Street", "Suburb": "Kogarah", "Postcode": 2217, "lat": -33.981114, "lon": 151.1483, "SSC_CODE16": "13310", "SSC_NAME16": "Ramsgate Beach" }, "geometry": { "type": "Point", "coordinates": [ 151.1483, -33.981113999125142 ] } },
{ "type": "Feature", "properties": { "Name": "St George Hospital", "Address": "Belgrave Street", "Suburb": "Kogarah", "Postcode": 2217, "lat": -33.963107, "lon": 151.133462, "SSC_CODE16": "12181", "SSC_NAME16": "Kogarah" }, "geometry": { "type": "Point", "coordinates": [ 151.133462, -33.963106999125365 ] } },
{ "type": "Feature", "properties": { "Name": "St George Hospital", "Address": "Belgrave Street", "Suburb": "Kogarah", "Postcode": 2217, "lat": -33.975135, "lon": 151.131345, "SSC_CODE16": "10330", "SSC_NAME16": "Beverley Park" }, "geometry": { "type": "Point", "coordinates": [ 151.131345, -33.975134999125217 ] } },
{ "type": "Feature", "properties": { "Name": "St George Hospital", "Address": "Belgrave Street", "Suburb": "Kogarah", "Postcode": 2217, "lat": -33.973068, "lon": 151.150983, "SSC_CODE16": "12686", "SSC_NAME16": "Monterey" }, "geometry": { "type": "Point", "coordinates": [ 151.150983, -33.973067999125242 ] } },
{ "type": "Feature", "properties": { "Name": "St George Hospital", "Address": "Belgrave Street", "Suburb": "Kogarah", "Postcode": 2217, "lat": -33.979117, "lon": 151.123296, "SSC_CODE16": "12182", "SSC_NAME16": "Kogarah Bay" }, "geometry": { "type": "Point", "coordinates": [ 151.123296, -33.979116999125161 ] } },
{ "type": "Feature", "properties": { "Name": "St George Hospital", "Address": "Belgrave Street", "Suburb": "Kogarah", "Postcode": 2217, "lat": -33.984683, "lon": 151.139847, "SSC_CODE16": "13489", "SSC_NAME16": "Sans Souci" }, "geometry": { "type": "Point", "coordinates": [ 151.139847, -33.984682999125084 ] } },
{ "type": "Feature", "properties": { "Name": "Calvary Health Care Sydney", "Address": "91-111 Rocky Point Road", "Suburb": "Kogarah", "Postcode": 2217, "lat": -33.981114, "lon": 151.1483, "SSC_CODE16": "13310", "SSC_NAME16": "Ramsgate Beach" }, "geometry": { "type": "Point", "coordinates": [ 151.1483, -33.981113999125142 ] } },
{ "type": "Feature", "properties": { "Name": "Calvary Health Care Sydney", "Address": "91-111 Rocky Point Road", "Suburb": "Kogarah", "Postcode": 2217, "lat": -33.963107, "lon": 151.133462, "SSC_CODE16": "12181", "SSC_NAME16": "Kogarah" }, "geometry": { "type": "Point", "coordinates": [ 151.133462, -33.963106999125365 ] } },
{ "type": "Feature", "properties": { "Name": "Calvary Health Care Sydney", "Address": "91-111 Rocky Point Road", "Suburb": "Kogarah", "Postcode": 2217, "lat": -33.975135, "lon": 151.131345, "SSC_CODE16": "10330", "SSC_NAME16": "Beverley Park" }, "geometry": { "type": "Point", "coordinates": [ 151.131345, -33.975134999125217 ] } },
{ "type": "Feature", "properties": { "Name": "Calvary Health Care Sydney", "Address": "91-111 Rocky Point Road", "Suburb": "Kogarah", "Postcode": 2217, "lat": -33.973068, "lon": 151.150983, "SSC_CODE16": "12686", "SSC_NAME16": "Monterey" }, "geometry": { "type": "Point", "coordinates": [ 151.150983, -33.973067999125242 ] } },
{ "type": "Feature", "properties": { "Name": "Calvary Health Care Sydney", "Address": "91-111 Rocky Point Road", "Suburb": "Kogarah", "Postcode": 2217, "lat": -33.979117, "lon": 151.123296, "SSC_CODE16": "12182", "SSC_NAME16": "Kogarah Bay" }, "geometry": { "type": "Point", "coordinates": [ 151.123296, -33.979116999125161 ] } },
{ "type": "Feature", "properties": { "Name": "Calvary Health Care Sydney", "Address": "91-111 Rocky Point Road", "Suburb": "Kogarah", "Postcode": 2217, "lat": -33.984683, "lon": 151.139847, "SSC_CODE16": "13489", "SSC_NAME16": "Sans Souci" }, "geometry": { "type": "Point", "coordinates": [ 151.139847, -33.984682999125084 ] } },
{ "type": "Feature", "properties": { "Name": "Sutherland Hospital & Community Health Service", "Address": "Cnr The Kingsway and Kareena Road", "Suburb": "Caringbah", "Postcode": 2229, "lat": -34.012545, "lon": 151.125456, "SSC_CODE16": "13766", "SSC_NAME16": "Taren Point" }, "geometry": { "type": "Point", "coordinates": [ 151.125456, -34.012544999124742 ] } },
{ "type": "Feature", "properties": { "Name": "Sutherland Hospital & Community Health Service", "Address": "Cnr The Kingsway and Kareena Road", "Suburb": "Caringbah", "Postcode": 2229, "lat": -34.069836, "lon": 151.114032, "SSC_CODE16": "12322", "SSC_NAME16": "Lilli Pilli (Sutherland Shire - NSW)" }, "geometry": { "type": "Point", "coordinates": [ 151.114032, -34.069835999124052 ] } },
{ "type": "Feature", "properties": { "Name": "Sutherland Hospital & Community Health Service", "Address": "Cnr The Kingsway and Kareena Road", "Suburb": "Caringbah", "Postcode": 2229, "lat": -34.078313, "lon": 151.102646, "SSC_CODE16": "13433", "SSC_NAME16": "Royal National Park" }, "geometry": { "type": "Point", "coordinates": [ 151.102646, -34.078312999123938 ] } },
{ "type": "Feature", "properties": { "Name": "Sutherland Hospital & Community Health Service", "Address": "Cnr The Kingsway and Kareena Road", "Suburb": "Caringbah", "Postcode": 2229, "lat": -34.04316, "lon": 151.123102, "SSC_CODE16": "10815", "SSC_NAME16": "Caringbah" }, "geometry": { "type": "Point", "coordinates": [ 151.123102, -34.043159999124398 ] } },
{ "type": "Feature", "properties": { "Name": "Sutherland Hospital & Community Health Service", "Address": "Cnr The Kingsway and Kareena Road", "Suburb": "Caringbah", "Postcode": 2229, "lat": -34.05968, "lon": 151.126746, "SSC_CODE16": "11266", "SSC_NAME16": "Dolans Bay" }, "geometry": { "type": "Point", "coordinates": [ 151.126746, -34.059679999124178 ] } },
{ "type": "Feature", "properties": { "Name": "Sutherland Hospital & Community Health Service", "Address": "Cnr The Kingsway and Kareena Road", "Suburb": "Caringbah", "Postcode": 2229, "lat": -34.067503, "lon": 151.122449, "SSC_CODE16": "13244", "SSC_NAME16": "Port Hacking" }, "geometry": { "type": "Point", "coordinates": [ 151.122449, -34.067502999124095 ] } },
{ "type": "Feature", "properties": { "Name": "Garrawarra Centre for Aged Care", "Address": "Princes Highway", "Suburb": "Waterfall", "Postcode": 2233, "lat": -34.1352, "lon": 150.994957, "SSC_CODE16": "14182", "SSC_NAME16": "Waterfall" }, "geometry": { "type": "Point", "coordinates": [ 150.994957, -34.135199999123252 ] } },
{ "type": "Feature", "properties": { "Name": "Garrawarra Centre for Aged Care", "Address": "Princes Highway", "Suburb": "Waterfall", "Postcode": 2233, "lat": -34.058462, "lon": 151.03279, "SSC_CODE16": "14485", "SSC_NAME16": "Yarrawarrah" }, "geometry": { "type": "Point", "coordinates": [ 151.03279, -34.058461999124198 ] } },
{ "type": "Feature", "properties": { "Name": "Garrawarra Centre for Aged Care", "Address": "Princes Highway", "Suburb": "Waterfall", "Postcode": 2233, "lat": -34.034836, "lon": 151.027656, "SSC_CODE16": "14422", "SSC_NAME16": "Woronora Heights" }, "geometry": { "type": "Point", "coordinates": [ 151.027656, -34.034835999124489 ] } },
{ "type": "Feature", "properties": { "Name": "Garrawarra Centre for Aged Care", "Address": "Princes Highway", "Suburb": "Waterfall", "Postcode": 2233, "lat": -34.065716, "lon": 151.012663, "SSC_CODE16": "11422", "SSC_NAME16": "Engadine" }, "geometry": { "type": "Point", "coordinates": [ 151.012663, -34.065715999124102 ] } },
{ "type": "Feature", "properties": { "Name": "Garrawarra Centre for Aged Care", "Address": "Princes Highway", "Suburb": "Waterfall", "Postcode": 2233, "lat": -34.079112, "lon": 151.008619, "SSC_CODE16": "11883", "SSC_NAME16": "Heathcote (NSW)" }, "geometry": { "type": "Point", "coordinates": [ 151.008619, -34.079111999123938 ] } },
{ "type": "Feature", "properties": { "Name": "Gosford Hospital", "Address": "Holden Street", "Suburb": "Gosford", "Postcode": 2250, "lat": -33.351199, "lon": 151.229736, "SSC_CODE16": "13172", "SSC_NAME16": "Peats Ridge" }, "geometry": { "type": "Point", "coordinates": [ 151.229736, -33.351198999133103 ] } },
{ "type": "Feature", "properties": { "Name": "Gosford Hospital", "Address": "Holden Street", "Suburb": "Gosford", "Postcode": 2250, "lat": -33.438534, "lon": 151.354167, "SSC_CODE16": "11349", "SSC_NAME16": "East Gosford" }, "geometry": { "type": "Point", "coordinates": [ 151.354167, -33.438533999131977 ] } },
{ "type": "Feature", "properties": { "Name": "Gosford Hospital", "Address": "Holden Street", "Suburb": "Gosford", "Postcode": 2250, "lat": -33.43835, "lon": 151.236467, "SSC_CODE16": "10752", "SSC_NAME16": "Calga" }, "geometry": { "type": "Point", "coordinates": [ 151.236467, -33.438349999131987 ] } },
{ "type": "Feature", "properties": { "Name": "Gosford Hospital", "Address": "Holden Street", "Suburb": "Gosford", "Postcode": 2250, "lat": -33.417004, "lon": 151.420834, "SSC_CODE16": "12520", "SSC_NAME16": "Matcham" }, "geometry": { "type": "Point", "coordinates": [ 151.420834, -33.417003999132262 ] } },
{ "type": "Feature", "properties": { "Name": "Gosford Hospital", "Address": "Holden Street", "Suburb": "Gosford", "Postcode": 2250, "lat": -33.41684, "lon": 151.348821, "SSC_CODE16": "12991", "SSC_NAME16": "North Gosford" }, "geometry": { "type": "Point", "coordinates": [ 151.348821, -33.41683999913225 ] } },
{ "type": "Feature", "properties": { "Name": "Gosford Hospital", "Address": "Holden Street", "Suburb": "Gosford", "Postcode": 2250, "lat": -33.436772, "lon": 151.320952, "SSC_CODE16": "13231", "SSC_NAME16": "Point Clare" }, "geometry": { "type": "Point", "coordinates": [ 151.320952, -33.436771999132006 ] } },
{ "type": "Feature", "properties": { "Name": "Gosford Hospital", "Address": "Holden Street", "Suburb": "Gosford", "Postcode": 2250, "lat": -33.381996, "lon": 151.355782, "SSC_CODE16": "12961", "SSC_NAME16": "Niagara Park" }, "geometry": { "type": "Point", "coordinates": [ 151.355782, -33.381995999132712 ] } },
{ "type": "Feature", "properties": { "Name": "Gosford Hospital", "Address": "Holden Street", "Suburb": "Gosford", "Postcode": 2250, "lat": -33.449407, "lon": 151.341896, "SSC_CODE16": "13232", "SSC_NAME16": "Point Frederick" }, "geometry": { "type": "Point", "coordinates": [ 151.341896, -33.449406999131838 ] } },
{ "type": "Feature", "properties": { "Name": "Gosford Hospital", "Address": "Holden Street", "Suburb": "Gosford", "Postcode": 2250, "lat": -33.395807, "lon": 151.346114, "SSC_CODE16": "12895", "SSC_NAME16": "Narara" }, "geometry": { "type": "Point", "coordinates": [ 151.346114, -33.395806999132517 ] } },
{ "type": "Feature", "properties": { "Name": "Gosford Hospital", "Address": "Holden Street", "Suburb": "Gosford", "Postcode": 2250, "lat": -33.324602, "lon": 151.089946, "SSC_CODE16": "13786", "SSC_NAME16": "Ten Mile Hollow" }, "geometry": { "type": "Point", "coordinates": [ 151.089946, -33.324601999133456 ] } },
{ "type": "Feature", "properties": { "Name": "Gosford Hospital", "Address": "Holden Street", "Suburb": "Gosford", "Postcode": 2250, "lat": -33.409747, "lon": 151.405406, "SSC_CODE16": "11921", "SSC_NAME16": "Holgate" }, "geometry": { "type": "Point", "coordinates": [ 151.405406, -33.409746999132373 ] } },
{ "type": "Feature", "properties": { "Name": "Gosford Hospital", "Address": "Holden Street", "Suburb": "Gosford", "Postcode": 2250, "lat": -33.430406, "lon": 151.370764, "SSC_CODE16": "13623", "SSC_NAME16": "Springfield (Central Coast - NSW)" }, "geometry": { "type": "Point", "coordinates": [ 151.370764, -33.430405999132077 ] } },
{ "type": "Feature", "properties": { "Name": "Gosford Hospital", "Address": "Holden Street", "Suburb": "Gosford", "Postcode": 2250, "lat": -33.360992, "lon": 151.291053, "SSC_CODE16": "13571", "SSC_NAME16": "Somersby" }, "geometry": { "type": "Point", "coordinates": [ 151.291053, -33.360991999132999 ] } },
{ "type": "Feature", "properties": { "Name": "Gosford Hospital", "Address": "Holden Street", "Suburb": "Gosford", "Postcode": 2250, "lat": -33.426938, "lon": 151.341843, "SSC_CODE16": "11722", "SSC_NAME16": "Gosford" }, "geometry": { "type": "Point", "coordinates": [ 151.341843, -33.426937999132129 ] } },
{ "type": "Feature", "properties": { "Name": "Gosford Hospital", "Address": "Holden Street", "Suburb": "Gosford", "Postcode": 2250, "lat": -33.450818, "lon": 151.319442, "SSC_CODE16": "13772", "SSC_NAME16": "Tascott" }, "geometry": { "type": "Point", "coordinates": [ 151.319442, -33.450817999131822 ] } },
{ "type": "Feature", "properties": { "Name": "Gosford Hospital", "Address": "Holden Street", "Suburb": "Gosford", "Postcode": 2250, "lat": -33.437893, "lon": 151.383648, "SSC_CODE16": "11433", "SSC_NAME16": "Erina" }, "geometry": { "type": "Point", "coordinates": [ 151.383648, -33.437892999131982 ] } },
{ "type": "Feature", "properties": { "Name": "Gosford Hospital", "Address": "Holden Street", "Suburb": "Gosford", "Postcode": 2250, "lat": -33.380843, "lon": 151.371283, "SSC_CODE16": "12343", "SSC_NAME16": "Lisarow" }, "geometry": { "type": "Point", "coordinates": [ 151.371283, -33.38084299913271 ] } },
{ "type": "Feature", "properties": { "Name": "Gosford Hospital", "Address": "Holden Street", "Suburb": "Gosford", "Postcode": 2250, "lat": -33.439621, "lon": 151.244578, "SSC_CODE16": "12705", "SSC_NAME16": "Mooney Mooney Creek" }, "geometry": { "type": "Point", "coordinates": [ 151.244578, -33.439620999131975 ] } },
{ "type": "Feature", "properties": { "Name": "Gosford Hospital", "Address": "Holden Street", "Suburb": "Gosford", "Postcode": 2250, "lat": -33.359231, "lon": 151.146082, "SSC_CODE16": "12471", "SSC_NAME16": "Mangrove Creek" }, "geometry": { "type": "Point", "coordinates": [ 151.146082, -33.359230999133004 ] } },
{ "type": "Feature", "properties": { "Name": "Gosford Hospital", "Address": "Holden Street", "Suburb": "Gosford", "Postcode": 2250, "lat": -33.423807, "lon": 151.17688, "SSC_CODE16": "11683", "SSC_NAME16": "Glenworth Valley" }, "geometry": { "type": "Point", "coordinates": [ 151.17688, -33.423806999132161 ] } },
{ "type": "Feature", "properties": { "Name": "Gosford Hospital", "Address": "Holden Street", "Suburb": "Gosford", "Postcode": 2250, "lat": -33.455552, "lon": 151.155631, "SSC_CODE16": "14224", "SSC_NAME16": "Wendoree Park" }, "geometry": { "type": "Point", "coordinates": [ 151.155631, -33.455551999131757 ] } },
{ "type": "Feature", "properties": { "Name": "Gosford Hospital", "Address": "Holden Street", "Suburb": "Gosford", "Postcode": 2250, "lat": -33.437221, "lon": 151.394139, "SSC_CODE16": "11433", "SSC_NAME16": "Erina" }, "geometry": { "type": "Point", "coordinates": [ 151.394139, -33.437220999132002 ] } },
{ "type": "Feature", "properties": { "Name": "Gosford Hospital", "Address": "Holden Street", "Suburb": "Gosford", "Postcode": 2250, "lat": -33.420829, "lon": 151.321753, "SSC_CODE16": "14244", "SSC_NAME16": "West Gosford" }, "geometry": { "type": "Point", "coordinates": [ 151.321753, -33.420828999132219 ] } },
{ "type": "Feature", "properties": { "Name": "Gosford Hospital", "Address": "Holden Street", "Suburb": "Gosford", "Postcode": 2250, "lat": -33.439733, "lon": 151.293333, "SSC_CODE16": "12074", "SSC_NAME16": "Kariong" }, "geometry": { "type": "Point", "coordinates": [ 151.293333, -33.439732999131955 ] } },
{ "type": "Feature", "properties": { "Name": "Gosford Hospital", "Address": "Holden Street", "Suburb": "Gosford", "Postcode": 2250, "lat": -33.382712, "lon": 151.145126, "SSC_CODE16": "11762", "SSC_NAME16": "Greengrove" }, "geometry": { "type": "Point", "coordinates": [ 151.145126, -33.382711999132695 ] } },
{ "type": "Feature", "properties": { "Name": "Gosford Hospital", "Address": "Holden Street", "Suburb": "Gosford", "Postcode": 2250, "lat": -33.461404, "lon": 151.190612, "SSC_CODE16": "12803", "SSC_NAME16": "Mount White" }, "geometry": { "type": "Point", "coordinates": [ 151.190612, -33.461403999131669 ] } },
{ "type": "Feature", "properties": { "Name": "Gosford Hospital", "Address": "Holden Street", "Suburb": "Gosford", "Postcode": 2250, "lat": -33.412045, "lon": 151.150688, "SSC_CODE16": "12409", "SSC_NAME16": "Lower Mangrove" }, "geometry": { "type": "Point", "coordinates": [ 151.150688, -33.412044999132299 ] } },
{ "type": "Feature", "properties": { "Name": "Gosford Hospital", "Address": "Holden Street", "Suburb": "Gosford", "Postcode": 2250, "lat": -33.399915, "lon": 151.385524, "SSC_CODE16": "12757", "SSC_NAME16": "Mount Elliot (NSW)" }, "geometry": { "type": "Point", "coordinates": [ 151.385524, -33.399914999132498 ] } },
{ "type": "Feature", "properties": { "Name": "Gosford Hospital", "Address": "Holden Street", "Suburb": "Gosford", "Postcode": 2250, "lat": -33.40485, "lon": 151.350776, "SSC_CODE16": "14445", "SSC_NAME16": "Wyoming" }, "geometry": { "type": "Point", "coordinates": [ 151.350776, -33.404849999132423 ] } },
{ "type": "Feature", "properties": { "Name": "Woy Woy Hospital", "Address": "Ocean Beach Road", "Suburb": "Woy Woy", "Postcode": 2256, "lat": -33.503434, "lon": 151.327632, "SSC_CODE16": "10399", "SSC_NAME16": "Blackwall (NSW)" }, "geometry": { "type": "Point", "coordinates": [ 151.327632, -33.50343399913114 ] } },
{ "type": "Feature", "properties": { "Name": "Woy Woy Hospital", "Address": "Ocean Beach Road", "Suburb": "Woy Woy", "Postcode": 2256, "lat": -33.485855, "lon": 151.324775, "SSC_CODE16": "14425", "SSC_NAME16": "Woy Woy" }, "geometry": { "type": "Point", "coordinates": [ 151.324775, -33.485854999131355 ] } },
{ "type": "Feature", "properties": { "Name": "Woy Woy Hospital", "Address": "Ocean Beach Road", "Suburb": "Woy Woy", "Postcode": 2256, "lat": -33.548076, "lon": 151.252911, "SSC_CODE16": "12359", "SSC_NAME16": "Little Wobby" }, "geometry": { "type": "Point", "coordinates": [ 151.252911, -33.54807599913056 ] } },
{ "type": "Feature", "properties": { "Name": "Woy Woy Hospital", "Address": "Ocean Beach Road", "Suburb": "Woy Woy", "Postcode": 2256, "lat": -33.49347, "lon": 151.299908, "SSC_CODE16": "11941", "SSC_NAME16": "Horsfield Bay" }, "geometry": { "type": "Point", "coordinates": [ 151.299908, -33.493469999131285 ] } },
{ "type": "Feature", "properties": { "Name": "Woy Woy Hospital", "Address": "Ocean Beach Road", "Suburb": "Woy Woy", "Postcode": 2256, "lat": -33.546452, "lon": 151.27119, "SSC_CODE16": "13160", "SSC_NAME16": "Patonga" }, "geometry": { "type": "Point", "coordinates": [ 151.27119, -33.546451999130603 ] } },
{ "type": "Feature", "properties": { "Name": "Woy Woy Hospital", "Address": "Ocean Beach Road", "Suburb": "Woy Woy", "Postcode": 2256, "lat": -33.538915, "lon": 151.302813, "SSC_CODE16": "13171", "SSC_NAME16": "Pearl Beach" }, "geometry": { "type": "Point", "coordinates": [ 151.302813, -33.538914999130675 ] } },
{ "type": "Feature", "properties": { "Name": "Woy Woy Hospital", "Address": "Ocean Beach Road", "Suburb": "Woy Woy", "Postcode": 2256, "lat": -33.46632, "lon": 151.31816, "SSC_CODE16": "12185", "SSC_NAME16": "Koolewong" }, "geometry": { "type": "Point", "coordinates": [ 151.31816, -33.466319999131642 ] } },
{ "type": "Feature", "properties": { "Name": "Woy Woy Hospital", "Address": "Ocean Beach Road", "Suburb": "Woy Woy", "Postcode": 2256, "lat": -33.484478, "lon": 151.312108, "SSC_CODE16": "14426", "SSC_NAME16": "Woy Woy Bay" }, "geometry": { "type": "Point", "coordinates": [ 151.312108, -33.484477999131407 ] } },
{ "type": "Feature", "properties": { "Name": "Woy Woy Hospital", "Address": "Ocean Beach Road", "Suburb": "Woy Woy", "Postcode": 2256, "lat": -33.49159, "lon": 151.256944, "SSC_CODE16": "14371", "SSC_NAME16": "Wondabyne" }, "geometry": { "type": "Point", "coordinates": [ 151.256944, -33.491589999131307 ] } },
{ "type": "Feature", "properties": { "Name": "Woy Woy Hospital", "Address": "Ocean Beach Road", "Suburb": "Woy Woy", "Postcode": 2256, "lat": -33.48859, "lon": 151.308453, "SSC_CODE16": "13192", "SSC_NAME16": "Phegans Bay" }, "geometry": { "type": "Point", "coordinates": [ 151.308453, -33.488589999131349 ] } },
{ "type": "Feature", "properties": { "Name": "Long Jetty Health Care Facility", "Address": "Wyong Road", "Suburb": "Killarney Vale", "Postcode": 2261, "lat": -33.362679, "lon": 151.447302, "SSC_CODE16": "13962", "SSC_NAME16": "Tumbi Umbi" }, "geometry": { "type": "Point", "coordinates": [ 151.447302, -33.362678999132946 ] } },
{ "type": "Feature", "properties": { "Name": "Long Jetty Health Care Facility", "Address": "Wyong Road", "Suburb": "Killarney Vale", "Postcode": 2261, "lat": -33.359163, "lon": 151.484178, "SSC_CODE16": "12378", "SSC_NAME16": "Long Jetty" }, "geometry": { "type": "Point", "coordinates": [ 151.484178, -33.359162999133019 ] } },
{ "type": "Feature", "properties": { "Name": "Long Jetty Health Care Facility", "Address": "Wyong Road", "Suburb": "Killarney Vale", "Postcode": 2261, "lat": -33.344648, "lon": 151.496394, "SSC_CODE16": "13818", "SSC_NAME16": "The Entrance" }, "geometry": { "type": "Point", "coordinates": [ 151.496394, -33.344647999133201 ] } },
{ "type": "Feature", "properties": { "Name": "Long Jetty Health Care Facility", "Address": "Wyong Road", "Suburb": "Killarney Vale", "Postcode": 2261, "lat": -33.313335, "lon": 151.519517, "SSC_CODE16": "12441", "SSC_NAME16": "Magenta (NSW)" }, "geometry": { "type": "Point", "coordinates": [ 151.519517, -33.313334999133609 ] } },
{ "type": "Feature", "properties": { "Name": "Long Jetty Health Care Facility", "Address": "Wyong Road", "Suburb": "Killarney Vale", "Postcode": 2261, "lat": -33.368675, "lon": 151.485687, "SSC_CODE16": "13535", "SSC_NAME16": "Shelly Beach (NSW)" }, "geometry": { "type": "Point", "coordinates": [ 151.485687, -33.368674999132892 ] } },
{ "type": "Feature", "properties": { "Name": "Long Jetty Health Care Facility", "Address": "Wyong Road", "Suburb": "Killarney Vale", "Postcode": 2261, "lat": -33.35802, "lon": 151.496592, "SSC_CODE16": "13916", "SSC_NAME16": "Toowoon Bay" }, "geometry": { "type": "Point", "coordinates": [ 151.496592, -33.358019999133028 ] } },
{ "type": "Feature", "properties": { "Name": "Long Jetty Health Care Facility", "Address": "Wyong Road", "Suburb": "Killarney Vale", "Postcode": 2261, "lat": -33.353709, "lon": 151.425996, "SSC_CODE16": "11672", "SSC_NAME16": "Glenning Valley" }, "geometry": { "type": "Point", "coordinates": [ 151.425996, -33.353708999133076 ] } },
{ "type": "Feature", "properties": { "Name": "Long Jetty Health Care Facility", "Address": "Wyong Road", "Suburb": "Killarney Vale", "Postcode": 2261, "lat": -33.341788, "lon": 151.43163, "SSC_CODE16": "10304", "SSC_NAME16": "Berkeley Vale" }, "geometry": { "type": "Point", "coordinates": [ 151.43163, -33.341787999133217 ] } },
{ "type": "Feature", "properties": { "Name": "Long Jetty Health Care Facility", "Address": "Wyong Road", "Suburb": "Killarney Vale", "Postcode": 2261, "lat": -33.369601, "lon": 151.459783, "SSC_CODE16": "12131", "SSC_NAME16": "Killarney Vale" }, "geometry": { "type": "Point", "coordinates": [ 151.459783, -33.369600999132864 ] } },
{ "type": "Feature", "properties": { "Name": "Long Jetty Health Care Facility", "Address": "Wyong Road", "Suburb": "Killarney Vale", "Postcode": 2261, "lat": -33.357184, "lon": 151.500048, "SSC_CODE16": "10414", "SSC_NAME16": "Blue Bay" }, "geometry": { "type": "Point", "coordinates": [ 151.500048, -33.357183999133028 ] } },
{ "type": "Feature", "properties": { "Name": "Long Jetty Health Care Facility", "Address": "Wyong Road", "Suburb": "Killarney Vale", "Postcode": 2261, "lat": -33.381213, "lon": 151.479104, "SSC_CODE16": "10227", "SSC_NAME16": "Bateau Bay" }, "geometry": { "type": "Point", "coordinates": [ 151.479104, -33.381212999132721 ] } },
{ "type": "Feature", "properties": { "Name": "Long Jetty Health Care Facility", "Address": "Wyong Road", "Suburb": "Killarney Vale", "Postcode": 2261, "lat": -33.326254, "lon": 151.511249, "SSC_CODE16": "13819", "SSC_NAME16": "The Entrance North" }, "geometry": { "type": "Point", "coordinates": [ 151.511249, -33.326253999133449 ] } },
{ "type": "Feature", "properties": { "Name": "Long Jetty Health Care Facility", "Address": "Wyong Road", "Suburb": "Killarney Vale", "Postcode": 2261, "lat": -33.326616, "lon": 151.463661, "SSC_CODE16": "10912", "SSC_NAME16": "Chittaway Point" }, "geometry": { "type": "Point", "coordinates": [ 151.463661, -33.326615999133459 ] } },
{ "type": "Feature", "properties": { "Name": "Long Jetty Health Care Facility", "Address": "Wyong Road", "Suburb": "Killarney Vale", "Postcode": 2261, "lat": -33.376325, "lon": 151.473838, "SSC_CODE16": "10227", "SSC_NAME16": "Bateau Bay" }, "geometry": { "type": "Point", "coordinates": [ 151.473838, -33.376324999132784 ] } },
{ "type": "Feature", "properties": { "Name": "Long Jetty Health Care Facility", "Address": "Wyong Road", "Suburb": "Killarney Vale", "Postcode": 2261, "lat": -33.32776, "lon": 151.429428, "SSC_CODE16": "10911", "SSC_NAME16": "Chittaway Bay" }, "geometry": { "type": "Point", "coordinates": [ 151.429428, -33.327759999133427 ] } },
{ "type": "Feature", "properties": { "Name": "Campbelltown Hospital", "Address": "Therry Road", "Suburb": "Campbelltown", "Postcode": 2560, "lat": -34.067441, "lon": 150.812522, "SSC_CODE16": "10780", "SSC_NAME16": "Campbelltown (NSW)" }, "geometry": { "type": "Point", "coordinates": [ 150.812522, -34.067440999124102 ] } },
{ "type": "Feature", "properties": { "Name": "Campbelltown Hospital", "Address": "Therry Road", "Suburb": "Campbelltown", "Postcode": 2560, "lat": -34.127555, "lon": 150.812698, "SSC_CODE16": "14209", "SSC_NAME16": "Wedderburn (NSW)" }, "geometry": { "type": "Point", "coordinates": [ 150.812698, -34.127554999123355 ] } },
{ "type": "Feature", "properties": { "Name": "Campbelltown Hospital", "Address": "Therry Road", "Suburb": "Campbelltown", "Postcode": 2560, "lat": -34.112264, "lon": 150.798121, "SSC_CODE16": "13637", "SSC_NAME16": "St Helens Park" }, "geometry": { "type": "Point", "coordinates": [ 150.798121, -34.112263999123549 ] } },
{ "type": "Feature", "properties": { "Name": "Campbelltown Hospital", "Address": "Therry Road", "Suburb": "Campbelltown", "Postcode": 2560, "lat": -34.086006, "lon": 150.814016, "SSC_CODE16": "10543", "SSC_NAME16": "Bradbury (NSW)" }, "geometry": { "type": "Point", "coordinates": [ 150.814016, -34.086005999123849 ] } },
{ "type": "Feature", "properties": { "Name": "Campbelltown Hospital", "Address": "Therry Road", "Suburb": "Campbelltown", "Postcode": 2560, "lat": -34.084184, "lon": 150.775275, "SSC_CODE16": "11645", "SSC_NAME16": "Glen Alpine" }, "geometry": { "type": "Point", "coordinates": [ 150.775275, -34.084183999123866 ] } },
{ "type": "Feature", "properties": { "Name": "Campbelltown Hospital", "Address": "Therry Road", "Suburb": "Campbelltown", "Postcode": 2560, "lat": -34.063835, "lon": 150.806007, "SSC_CODE16": "10400", "SSC_NAME16": "Blair Athol (NSW)" }, "geometry": { "type": "Point", "coordinates": [ 150.806007, -34.063834999124118 ] } },
{ "type": "Feature", "properties": { "Name": "Campbelltown Hospital", "Address": "Therry Road", "Suburb": "Campbelltown", "Postcode": 2560, "lat": -34.073171, "lon": 150.85743, "SSC_CODE16": "12101", "SSC_NAME16": "Kentlyn" }, "geometry": { "type": "Point", "coordinates": [ 150.85743, -34.073170999124009 ] } },
{ "type": "Feature", "properties": { "Name": "Campbelltown Hospital", "Address": "Therry Road", "Suburb": "Campbelltown", "Postcode": 2560, "lat": -34.06584, "lon": 150.82489, "SSC_CODE16": "10780", "SSC_NAME16": "Campbelltown (NSW)" }, "geometry": { "type": "Point", "coordinates": [ 150.82489, -34.065839999124108 ] } },
{ "type": "Feature", "properties": { "Name": "Campbelltown Hospital", "Address": "Therry Road", "Suburb": "Campbelltown", "Postcode": 2560, "lat": -34.069283, "lon": 150.844069, "SSC_CODE16": "13443", "SSC_NAME16": "Ruse" }, "geometry": { "type": "Point", "coordinates": [ 150.844069, -34.069282999124056 ] } },
{ "type": "Feature", "properties": { "Name": "Campbelltown Hospital", "Address": "Therry Road", "Suburb": "Campbelltown", "Postcode": 2560, "lat": -34.076256, "lon": 150.798055, "SSC_CODE16": "10780", "SSC_NAME16": "Campbelltown (NSW)" }, "geometry": { "type": "Point", "coordinates": [ 150.798055, -34.076255999123973 ] } },
{ "type": "Feature", "properties": { "Name": "Campbelltown Hospital", "Address": "Therry Road", "Suburb": "Campbelltown", "Postcode": 2560, "lat": -34.052285, "lon": 150.833396, "SSC_CODE16": "12308", "SSC_NAME16": "Leumeah" }, "geometry": { "type": "Point", "coordinates": [ 150.833396, -34.052284999124275 ] } },
{ "type": "Feature", "properties": { "Name": "Campbelltown Hospital", "Address": "Therry Road", "Suburb": "Campbelltown", "Postcode": 2560, "lat": -34.084468, "lon": 150.829041, "SSC_CODE16": "10022", "SSC_NAME16": "Airds" }, "geometry": { "type": "Point", "coordinates": [ 150.829041, -34.084467999123873 ] } },
{ "type": "Feature", "properties": { "Name": "Campbelltown Hospital", "Address": "Therry Road", "Suburb": "Campbelltown", "Postcode": 2560, "lat": -34.049892, "lon": 150.818872, "SSC_CODE16": "14378", "SSC_NAME16": "Woodbine (NSW)" }, "geometry": { "type": "Point", "coordinates": [ 150.818872, -34.049891999124306 ] } },
{ "type": "Feature", "properties": { "Name": "Campbelltown Hospital", "Address": "Therry Road", "Suburb": "Campbelltown", "Postcode": 2560, "lat": -34.101795, "lon": 150.800106, "SSC_CODE16": "13410", "SSC_NAME16": "Rosemeadow" }, "geometry": { "type": "Point", "coordinates": [ 150.800106, -34.101794999123655 ] } },
{ "type": "Feature", "properties": { "Name": "Campbelltown Hospital", "Address": "Therry Road", "Suburb": "Campbelltown", "Postcode": 2560, "lat": -34.107035, "lon": 150.761815, "SSC_CODE16": "12569", "SSC_NAME16": "Menangle Park" }, "geometry": { "type": "Point", "coordinates": [ 150.761815, -34.107034999123591 ] } },
{ "type": "Feature", "properties": { "Name": "Campbelltown Hospital", "Address": "Therry Road", "Suburb": "Campbelltown", "Postcode": 2560, "lat": -34.080467, "lon": 150.803644, "SSC_CODE16": "10049", "SSC_NAME16": "Ambarvale" }, "geometry": { "type": "Point", "coordinates": [ 150.803644, -34.080466999123928 ] } },
{ "type": "Feature", "properties": { "Name": "Campbelltown Hospital", "Address": "Therry Road", "Suburb": "Campbelltown", "Postcode": 2560, "lat": -34.082052, "lon": 150.795131, "SSC_CODE16": "11423", "SSC_NAME16": "Englorie Park" }, "geometry": { "type": "Point", "coordinates": [ 150.795131, -34.082051999123912 ] } },
{ "type": "Feature", "properties": { "Name": "Camden Hospital", "Address": "Menangle Road", "Suburb": "Camden", "Postcode": 2570, "lat": -34.038536, "lon": 150.71674, "SSC_CODE16": "12171", "SSC_NAME16": "Kirkham" }, "geometry": { "type": "Point", "coordinates": [ 150.71674, -34.038535999124441 ] } },
{ "type": "Feature", "properties": { "Name": "Camden Hospital", "Address": "Menangle Road", "Suburb": "Camden", "Postcode": 2570, "lat": -34.08748, "lon": 150.695074, "SSC_CODE16": "10773", "SSC_NAME16": "Camden South" }, "geometry": { "type": "Point", "coordinates": [ 150.695074, -34.08747999912385 ] } },
{ "type": "Feature", "properties": { "Name": "Camden Hospital", "Address": "Menangle Road", "Suburb": "Camden", "Postcode": 2570, "lat": -34.063271, "lon": 150.597678, "SSC_CODE16": "11669", "SSC_NAME16": "Glenmore (NSW)" }, "geometry": { "type": "Point", "coordinates": [ 150.597678, -34.063270999124128 ] } },
{ "type": "Feature", "properties": { "Name": "Camden Hospital", "Address": "Menangle Road", "Suburb": "Camden", "Postcode": 2570, "lat": -34.078174, "lon": 150.513639, "SSC_CODE16": "13054", "SSC_NAME16": "Oakdale (NSW)" }, "geometry": { "type": "Point", "coordinates": [ 150.513639, -34.078173999123948 ] } },
{ "type": "Feature", "properties": { "Name": "Camden Hospital", "Address": "Menangle Road", "Suburb": "Camden", "Postcode": 2570, "lat": -34.075888, "lon": 150.543085, "SSC_CODE16": "10261", "SSC_NAME16": "Belimbla Park" }, "geometry": { "type": "Point", "coordinates": [ 150.543085, -34.075887999123964 ] } },
{ "type": "Feature", "properties": { "Name": "Camden Hospital", "Address": "Menangle Road", "Suburb": "Camden", "Postcode": 2570, "lat": -34.04279, "lon": 150.573125, "SSC_CODE16": "13094", "SSC_NAME16": "Orangeville" }, "geometry": { "type": "Point", "coordinates": [ 150.573125, -34.042789999124388 ] } },
{ "type": "Feature", "properties": { "Name": "Camden Hospital", "Address": "Menangle Road", "Suburb": "Camden", "Postcode": 2570, "lat": -34.071248, "lon": 150.641382, "SSC_CODE16": "12765", "SSC_NAME16": "Mount Hunter" }, "geometry": { "type": "Point", "coordinates": [ 150.641382, -34.071247999124019 ] } },
{ "type": "Feature", "properties": { "Name": "Camden Hospital", "Address": "Menangle Road", "Suburb": "Camden", "Postcode": 2570, "lat": -34.034824, "lon": 150.657016, "SSC_CODE16": "10609", "SSC_NAME16": "Brownlow Hill" }, "geometry": { "type": "Point", "coordinates": [ 150.657016, -34.03482399912447 ] } },
{ "type": "Feature", "properties": { "Name": "Camden Hospital", "Address": "Menangle Road", "Suburb": "Camden", "Postcode": 2570, "lat": -34.015874, "lon": 150.691029, "SSC_CODE16": "10954", "SSC_NAME16": "Cobbitty" }, "geometry": { "type": "Point", "coordinates": [ 150.691029, -34.015873999124729 ] } },
{ "type": "Feature", "properties": { "Name": "Camden Hospital", "Address": "Menangle Road", "Suburb": "Camden", "Postcode": 2570, "lat": -34.040061, "lon": 150.672006, "SSC_CODE16": "11405", "SSC_NAME16": "Ellis Lane" }, "geometry": { "type": "Point", "coordinates": [ 150.672006, -34.040060999124414 ] } },
{ "type": "Feature", "properties": { "Name": "Camden Hospital", "Address": "Menangle Road", "Suburb": "Camden", "Postcode": 2570, "lat": -34.088673, "lon": 150.721836, "SSC_CODE16": "10772", "SSC_NAME16": "Camden Park (NSW)" }, "geometry": { "type": "Point", "coordinates": [ 150.721836, -34.088672999123808 ] } },
{ "type": "Feature", "properties": { "Name": "Camden Hospital", "Address": "Menangle Road", "Suburb": "Camden", "Postcode": 2570, "lat": -34.006941, "lon": 150.723908, "SSC_CODE16": "13091", "SSC_NAME16": "Oran Park" }, "geometry": { "type": "Point", "coordinates": [ 150.723908, -34.006940999124829 ] } },
{ "type": "Feature", "properties": { "Name": "Camden Hospital", "Address": "Menangle Road", "Suburb": "Camden", "Postcode": 2570, "lat": -34.056293, "lon": 150.67317, "SSC_CODE16": "11739", "SSC_NAME16": "Grasmere" }, "geometry": { "type": "Point", "coordinates": [ 150.67317, -34.056292999124217 ] } },
{ "type": "Feature", "properties": { "Name": "Camden Hospital", "Address": "Menangle Road", "Suburb": "Camden", "Postcode": 2570, "lat": -34.070905, "lon": 150.666238, "SSC_CODE16": "11739", "SSC_NAME16": "Grasmere" }, "geometry": { "type": "Point", "coordinates": [ 150.666238, -34.070904999124032 ] } },
{ "type": "Feature", "properties": { "Name": "Camden Hospital", "Address": "Menangle Road", "Suburb": "Camden", "Postcode": 2570, "lat": -34.054599, "lon": 150.695678, "SSC_CODE16": "10770", "SSC_NAME16": "Camden" }, "geometry": { "type": "Point", "coordinates": [ 150.695678, -34.054598999124238 ] } },
{ "type": "Feature", "properties": { "Name": "Camden Hospital", "Address": "Menangle Road", "Suburb": "Camden", "Postcode": 2570, "lat": -34.007922, "lon": 150.639915, "SSC_CODE16": "13845", "SSC_NAME16": "Theresa Park" }, "geometry": { "type": "Point", "coordinates": [ 150.639915, -34.007921999124811 ] } },
{ "type": "Feature", "properties": { "Name": "Camden Hospital", "Address": "Menangle Road", "Suburb": "Camden", "Postcode": 2570, "lat": -34.076873, "lon": 150.571086, "SSC_CODE16": "13831", "SSC_NAME16": "The Oaks" }, "geometry": { "type": "Point", "coordinates": [ 150.571086, -34.076872999123992 ] } },
{ "type": "Feature", "properties": { "Name": "Camden Hospital", "Address": "Menangle Road", "Suburb": "Camden", "Postcode": 2570, "lat": -34.108691, "lon": 150.671985, "SSC_CODE16": "10863", "SSC_NAME16": "Cawdor (NSW)" }, "geometry": { "type": "Point", "coordinates": [ 150.671985, -34.108690999123574 ] } },
{ "type": "Feature", "properties": { "Name": "Camden Hospital", "Address": "Menangle Road", "Suburb": "Camden", "Postcode": 2570, "lat": -34.059038, "lon": 150.711427, "SSC_CODE16": "11391", "SSC_NAME16": "Elderslie (Camden - NSW)" }, "geometry": { "type": "Point", "coordinates": [ 150.711427, -34.059037999124186 ] } },
{ "type": "Feature", "properties": { "Name": "Camden Hospital", "Address": "Menangle Road", "Suburb": "Camden", "Postcode": 2570, "lat": -34.070247, "lon": 150.727716, "SSC_CODE16": "13612", "SSC_NAME16": "Spring Farm (NSW)" }, "geometry": { "type": "Point", "coordinates": [ 150.727716, -34.070246999124052 ] } },
{ "type": "Feature", "properties": { "Name": "Camden Hospital", "Address": "Menangle Road", "Suburb": "Camden", "Postcode": 2570, "lat": -33.988918, "lon": 150.57174, "SSC_CODE16": "14232", "SSC_NAME16": "Werombi" }, "geometry": { "type": "Point", "coordinates": [ 150.57174, -33.988917999125036 ] } },
{ "type": "Feature", "properties": { "Name": "Carrington Centennial Hospital", "Address": "90 Werombi Road", "Suburb": "Camden", "Postcode": 2570, "lat": -34.038536, "lon": 150.71674, "SSC_CODE16": "12171", "SSC_NAME16": "Kirkham" }, "geometry": { "type": "Point", "coordinates": [ 150.71674, -34.038535999124441 ] } },
{ "type": "Feature", "properties": { "Name": "Carrington Centennial Hospital", "Address": "90 Werombi Road", "Suburb": "Camden", "Postcode": 2570, "lat": -34.08748, "lon": 150.695074, "SSC_CODE16": "10773", "SSC_NAME16": "Camden South" }, "geometry": { "type": "Point", "coordinates": [ 150.695074, -34.08747999912385 ] } },
{ "type": "Feature", "properties": { "Name": "Carrington Centennial Hospital", "Address": "90 Werombi Road", "Suburb": "Camden", "Postcode": 2570, "lat": -34.063271, "lon": 150.597678, "SSC_CODE16": "11669", "SSC_NAME16": "Glenmore (NSW)" }, "geometry": { "type": "Point", "coordinates": [ 150.597678, -34.063270999124128 ] } },
{ "type": "Feature", "properties": { "Name": "Carrington Centennial Hospital", "Address": "90 Werombi Road", "Suburb": "Camden", "Postcode": 2570, "lat": -34.078174, "lon": 150.513639, "SSC_CODE16": "13054", "SSC_NAME16": "Oakdale (NSW)" }, "geometry": { "type": "Point", "coordinates": [ 150.513639, -34.078173999123948 ] } },
{ "type": "Feature", "properties": { "Name": "Carrington Centennial Hospital", "Address": "90 Werombi Road", "Suburb": "Camden", "Postcode": 2570, "lat": -34.075888, "lon": 150.543085, "SSC_CODE16": "10261", "SSC_NAME16": "Belimbla Park" }, "geometry": { "type": "Point", "coordinates": [ 150.543085, -34.075887999123964 ] } },
{ "type": "Feature", "properties": { "Name": "Carrington Centennial Hospital", "Address": "90 Werombi Road", "Suburb": "Camden", "Postcode": 2570, "lat": -34.04279, "lon": 150.573125, "SSC_CODE16": "13094", "SSC_NAME16": "Orangeville" }, "geometry": { "type": "Point", "coordinates": [ 150.573125, -34.042789999124388 ] } },
{ "type": "Feature", "properties": { "Name": "Carrington Centennial Hospital", "Address": "90 Werombi Road", "Suburb": "Camden", "Postcode": 2570, "lat": -34.071248, "lon": 150.641382, "SSC_CODE16": "12765", "SSC_NAME16": "Mount Hunter" }, "geometry": { "type": "Point", "coordinates": [ 150.641382, -34.071247999124019 ] } },
{ "type": "Feature", "properties": { "Name": "Carrington Centennial Hospital", "Address": "90 Werombi Road", "Suburb": "Camden", "Postcode": 2570, "lat": -34.034824, "lon": 150.657016, "SSC_CODE16": "10609", "SSC_NAME16": "Brownlow Hill" }, "geometry": { "type": "Point", "coordinates": [ 150.657016, -34.03482399912447 ] } },
{ "type": "Feature", "properties": { "Name": "Carrington Centennial Hospital", "Address": "90 Werombi Road", "Suburb": "Camden", "Postcode": 2570, "lat": -34.015874, "lon": 150.691029, "SSC_CODE16": "10954", "SSC_NAME16": "Cobbitty" }, "geometry": { "type": "Point", "coordinates": [ 150.691029, -34.015873999124729 ] } },
{ "type": "Feature", "properties": { "Name": "Carrington Centennial Hospital", "Address": "90 Werombi Road", "Suburb": "Camden", "Postcode": 2570, "lat": -34.040061, "lon": 150.672006, "SSC_CODE16": "11405", "SSC_NAME16": "Ellis Lane" }, "geometry": { "type": "Point", "coordinates": [ 150.672006, -34.040060999124414 ] } },
{ "type": "Feature", "properties": { "Name": "Carrington Centennial Hospital", "Address": "90 Werombi Road", "Suburb": "Camden", "Postcode": 2570, "lat": -34.088673, "lon": 150.721836, "SSC_CODE16": "10772", "SSC_NAME16": "Camden Park (NSW)" }, "geometry": { "type": "Point", "coordinates": [ 150.721836, -34.088672999123808 ] } },
{ "type": "Feature", "properties": { "Name": "Carrington Centennial Hospital", "Address": "90 Werombi Road", "Suburb": "Camden", "Postcode": 2570, "lat": -34.006941, "lon": 150.723908, "SSC_CODE16": "13091", "SSC_NAME16": "Oran Park" }, "geometry": { "type": "Point", "coordinates": [ 150.723908, -34.006940999124829 ] } },
{ "type": "Feature", "properties": { "Name": "Carrington Centennial Hospital", "Address": "90 Werombi Road", "Suburb": "Camden", "Postcode": 2570, "lat": -34.056293, "lon": 150.67317, "SSC_CODE16": "11739", "SSC_NAME16": "Grasmere" }, "geometry": { "type": "Point", "coordinates": [ 150.67317, -34.056292999124217 ] } },
{ "type": "Feature", "properties": { "Name": "Carrington Centennial Hospital", "Address": "90 Werombi Road", "Suburb": "Camden", "Postcode": 2570, "lat": -34.070905, "lon": 150.666238, "SSC_CODE16": "11739", "SSC_NAME16": "Grasmere" }, "geometry": { "type": "Point", "coordinates": [ 150.666238, -34.070904999124032 ] } },
{ "type": "Feature", "properties": { "Name": "Carrington Centennial Hospital", "Address": "90 Werombi Road", "Suburb": "Camden", "Postcode": 2570, "lat": -34.054599, "lon": 150.695678, "SSC_CODE16": "10770", "SSC_NAME16": "Camden" }, "geometry": { "type": "Point", "coordinates": [ 150.695678, -34.054598999124238 ] } },
{ "type": "Feature", "properties": { "Name": "Carrington Centennial Hospital", "Address": "90 Werombi Road", "Suburb": "Camden", "Postcode": 2570, "lat": -34.007922, "lon": 150.639915, "SSC_CODE16": "13845", "SSC_NAME16": "Theresa Park" }, "geometry": { "type": "Point", "coordinates": [ 150.639915, -34.007921999124811 ] } },
{ "type": "Feature", "properties": { "Name": "Carrington Centennial Hospital", "Address": "90 Werombi Road", "Suburb": "Camden", "Postcode": 2570, "lat": -34.076873, "lon": 150.571086, "SSC_CODE16": "13831", "SSC_NAME16": "The Oaks" }, "geometry": { "type": "Point", "coordinates": [ 150.571086, -34.076872999123992 ] } },
{ "type": "Feature", "properties": { "Name": "Carrington Centennial Hospital", "Address": "90 Werombi Road", "Suburb": "Camden", "Postcode": 2570, "lat": -34.108691, "lon": 150.671985, "SSC_CODE16": "10863", "SSC_NAME16": "Cawdor (NSW)" }, "geometry": { "type": "Point", "coordinates": [ 150.671985, -34.108690999123574 ] } },
{ "type": "Feature", "properties": { "Name": "Carrington Centennial Hospital", "Address": "90 Werombi Road", "Suburb": "Camden", "Postcode": 2570, "lat": -34.059038, "lon": 150.711427, "SSC_CODE16": "11391", "SSC_NAME16": "Elderslie (Camden - NSW)" }, "geometry": { "type": "Point", "coordinates": [ 150.711427, -34.059037999124186 ] } },
{ "type": "Feature", "properties": { "Name": "Carrington Centennial Hospital", "Address": "90 Werombi Road", "Suburb": "Camden", "Postcode": 2570, "lat": -34.070247, "lon": 150.727716, "SSC_CODE16": "13612", "SSC_NAME16": "Spring Farm (NSW)" }, "geometry": { "type": "Point", "coordinates": [ 150.727716, -34.070246999124052 ] } },
{ "type": "Feature", "properties": { "Name": "Carrington Centennial Hospital", "Address": "90 Werombi Road", "Suburb": "Camden", "Postcode": 2570, "lat": -33.988918, "lon": 150.57174, "SSC_CODE16": "14232", "SSC_NAME16": "Werombi" }, "geometry": { "type": "Point", "coordinates": [ 150.57174, -33.988917999125036 ] } },
{ "type": "Feature", "properties": { "Name": "Queen Victoria Memorial Home", "Address": "615 Thirlmere Way", "Suburb": "Picton", "Postcode": 2571, "lat": -34.136585, "lon": 150.665604, "SSC_CODE16": "13328", "SSC_NAME16": "Razorback" }, "geometry": { "type": "Point", "coordinates": [ 150.665604, -34.13658499912323 ] } },
{ "type": "Feature", "properties": { "Name": "Queanbeyan District Hospital", "Address": "Corner Erin & Collett Streets", "Suburb": "Queanbeyan", "Postcode": 2620, "lat": -33.94239, "lon": 150.865056, "SSC_CODE16": "13260", "SSC_NAME16": "Prestons" }, "geometry": { "type": "Point", "coordinates": [ 150.865056, -33.942389999125616 ] } },
{ "type": "Feature", "properties": { "Name": "Queanbeyan District Hospital", "Address": "Corner Erin & Collett Streets", "Suburb": "Queanbeyan", "Postcode": 2620, "lat": -34.058994, "lon": 150.835136, "SSC_CODE16": "12308", "SSC_NAME16": "Leumeah" }, "geometry": { "type": "Point", "coordinates": [ 150.835136, -34.058993999124191 ] } },
{ "type": "Feature", "properties": { "Name": "Wagga Wagga Rural Referral Hospital", "Address": "Docker Street", "Suburb": "Wagga Wagga", "Postcode": 2650, "lat": -33.486146, "lon": 150.147653, "SSC_CODE16": "12347", "SSC_NAME16": "Lithgow" }, "geometry": { "type": "Point", "coordinates": [ 150.147653, -33.486145999131359 ] } },
{ "type": "Feature", "properties": { "Name": "Nepean Hospital", "Address": "Derby Street", "Suburb": "Kingswood", "Postcode": 2747, "lat": -33.759967, "lon": 150.72046, "SSC_CODE16": "12163", "SSC_NAME16": "Kingswood (Penrith - NSW)" }, "geometry": { "type": "Point", "coordinates": [ 150.72046, -33.759966999127897 ] } },
{ "type": "Feature", "properties": { "Name": "Nepean Hospital", "Address": "Derby Street", "Suburb": "Kingswood", "Postcode": 2747, "lat": -33.75152, "lon": 150.725439, "SSC_CODE16": "10768", "SSC_NAME16": "Cambridge Park" }, "geometry": { "type": "Point", "coordinates": [ 150.725439, -33.751519999128014 ] } },
{ "type": "Feature", "properties": { "Name": "Nepean Hospital", "Address": "Derby Street", "Suburb": "Kingswood", "Postcode": 2747, "lat": -33.747939, "lon": 150.751155, "SSC_CODE16": "14236", "SSC_NAME16": "Werrington County" }, "geometry": { "type": "Point", "coordinates": [ 150.751155, -33.747938999128053 ] } },
{ "type": "Feature", "properties": { "Name": "Nepean Hospital", "Address": "Derby Street", "Suburb": "Kingswood", "Postcode": 2747, "lat": -33.708904, "lon": 150.756773, "SSC_CODE16": "12363", "SSC_NAME16": "Llandilo" }, "geometry": { "type": "Point", "coordinates": [ 150.756773, -33.708903999128538 ] } },
{ "type": "Feature", "properties": { "Name": "Nepean Hospital", "Address": "Derby Street", "Suburb": "Kingswood", "Postcode": 2747, "lat": -33.735558, "lon": 150.721712, "SSC_CODE16": "10767", "SSC_NAME16": "Cambridge Gardens" }, "geometry": { "type": "Point", "coordinates": [ 150.721712, -33.735557999128204 ] } },
{ "type": "Feature", "properties": { "Name": "Nepean Hospital", "Address": "Derby Street", "Suburb": "Kingswood", "Postcode": 2747, "lat": -33.757725, "lon": 150.739982, "SSC_CODE16": "14235", "SSC_NAME16": "Werrington" }, "geometry": { "type": "Point", "coordinates": [ 150.739982, -33.757724999127916 ] } },
{ "type": "Feature", "properties": { "Name": "Nepean Hospital", "Address": "Derby Street", "Suburb": "Kingswood", "Postcode": 2747, "lat": -33.770438, "lon": 150.752791, "SSC_CODE16": "10918", "SSC_NAME16": "Claremont Meadows" }, "geometry": { "type": "Point", "coordinates": [ 150.752791, -33.770437999127751 ] } },
{ "type": "Feature", "properties": { "Name": "Nepean Hospital", "Address": "Derby Street", "Suburb": "Kingswood", "Postcode": 2747, "lat": -33.711305, "lon": 150.783287, "SSC_CODE16": "13524", "SSC_NAME16": "Shanes Park" }, "geometry": { "type": "Point", "coordinates": [ 150.783287, -33.711304999128515 ] } },
{ "type": "Feature", "properties": { "Name": "Nepean Hospital", "Address": "Derby Street", "Suburb": "Kingswood", "Postcode": 2747, "lat": -33.740586, "lon": 150.733755, "SSC_CODE16": "14237", "SSC_NAME16": "Werrington Downs" }, "geometry": { "type": "Point", "coordinates": [ 150.733755, -33.740585999128136 ] } },
{ "type": "Feature", "properties": { "Name": "Governor Phillip Residential Aged Care Facility", "Address": "Glebe Place", "Suburb": "Penrith", "Postcode": 2750, "lat": -33.735636, "lon": 150.650321, "SSC_CODE16": "11417", "SSC_NAME16": "Emu Heights (NSW)" }, "geometry": { "type": "Point", "coordinates": [ 150.650321, -33.735635999128206 ] } },
{ "type": "Feature", "properties": { "Name": "Governor Phillip Residential Aged Care Facility", "Address": "Glebe Place", "Suburb": "Penrith", "Postcode": 2750, "lat": -33.750982, "lon": 150.692201, "SSC_CODE16": "13184", "SSC_NAME16": "Penrith" }, "geometry": { "type": "Point", "coordinates": [ 150.692201, -33.750981999127994 ] } },
{ "type": "Feature", "properties": { "Name": "Governor Phillip Residential Aged Care Facility", "Address": "Glebe Place", "Suburb": "Penrith", "Postcode": 2750, "lat": -33.754097, "lon": 150.653269, "SSC_CODE16": "11418", "SSC_NAME16": "Emu Plains" }, "geometry": { "type": "Point", "coordinates": [ 150.653269, -33.754096999127974 ] } },
{ "type": "Feature", "properties": { "Name": "Governor Phillip Residential Aged Care Facility", "Address": "Glebe Place", "Suburb": "Penrith", "Postcode": 2750, "lat": -33.767176, "lon": 150.703837, "SSC_CODE16": "13596", "SSC_NAME16": "South Penrith" }, "geometry": { "type": "Point", "coordinates": [ 150.703837, -33.767175999127808 ] } },
{ "type": "Feature", "properties": { "Name": "Governor Phillip Residential Aged Care Facility", "Address": "Glebe Place", "Suburb": "Penrith", "Postcode": 2750, "lat": -33.766193, "lon": 150.67951, "SSC_CODE16": "12000", "SSC_NAME16": "Jamisontown" }, "geometry": { "type": "Point", "coordinates": [ 150.67951, -33.76619299912781 ] } },
{ "type": "Feature", "properties": { "Name": "Governor Phillip Residential Aged Care Facility", "Address": "Glebe Place", "Suburb": "Penrith", "Postcode": 2750, "lat": -33.744073, "lon": 150.69602, "SSC_CODE16": "13184", "SSC_NAME16": "Penrith" }, "geometry": { "type": "Point", "coordinates": [ 150.69602, -33.744072999128079 ] } },
{ "type": "Feature", "properties": { "Name": "Governor Phillip Residential Aged Care Facility", "Address": "Glebe Place", "Suburb": "Penrith", "Postcode": 2750, "lat": -33.767176, "lon": 150.703837, "SSC_CODE16": "13596", "SSC_NAME16": "South Penrith" }, "geometry": { "type": "Point", "coordinates": [ 150.703837, -33.767175999127808 ] } },
{ "type": "Feature", "properties": { "Name": "Governor Phillip Residential Aged Care Facility", "Address": "Glebe Place", "Suburb": "Penrith", "Postcode": 2750, "lat": -33.759156, "lon": 150.652318, "SSC_CODE16": "12304", "SSC_NAME16": "Leonay" }, "geometry": { "type": "Point", "coordinates": [ 150.652318, -33.759155999127898 ] } },
{ "type": "Feature", "properties": { "Name": "Mount Druitt Hospital", "Address": "75 Railway St", "Suburb": "Mount Druitt", "Postcode": 2770, "lat": -33.727621, "lon": 150.791569, "SSC_CODE16": "13397", "SSC_NAME16": "Ropes Crossing" }, "geometry": { "type": "Point", "coordinates": [ 150.791569, -33.727620999128298 ] } },
{ "type": "Feature", "properties": { "Name": "Mount Druitt Hospital", "Address": "75 Railway St", "Suburb": "Mount Druitt", "Postcode": 2770, "lat": -33.73024, "lon": 150.822765, "SSC_CODE16": "10340", "SSC_NAME16": "Bidwill (NSW)" }, "geometry": { "type": "Point", "coordinates": [ 150.822765, -33.730239999128273 ] } },
{ "type": "Feature", "properties": { "Name": "Mount Druitt Hospital", "Address": "75 Railway St", "Suburb": "Mount Druitt", "Postcode": 2770, "lat": -33.751082, "lon": 150.795678, "SSC_CODE16": "13934", "SSC_NAME16": "Tregear" }, "geometry": { "type": "Point", "coordinates": [ 150.795678, -33.751081999127983 ] } },
{ "type": "Feature", "properties": { "Name": "Mount Druitt Hospital", "Address": "75 Railway St", "Suburb": "Mount Druitt", "Postcode": 2770, "lat": -33.738507, "lon": 150.811206, "SSC_CODE16": "10392", "SSC_NAME16": "Blackett" }, "geometry": { "type": "Point", "coordinates": [ 150.811206, -33.738506999128163 ] } },
{ "type": "Feature", "properties": { "Name": "Mount Druitt Hospital", "Address": "75 Railway St", "Suburb": "Mount Druitt", "Postcode": 2770, "lat": -33.760165, "lon": 150.809528, "SSC_CODE16": "14266", "SSC_NAME16": "Whalan" }, "geometry": { "type": "Point", "coordinates": [ 150.809528, -33.760164999127895 ] } },
{ "type": "Feature", "properties": { "Name": "Mount Druitt Hospital", "Address": "75 Railway St", "Suburb": "Mount Druitt", "Postcode": 2770, "lat": -33.742855, "lon": 150.808263, "SSC_CODE16": "11413", "SSC_NAME16": "Emerton" }, "geometry": { "type": "Point", "coordinates": [ 150.808263, -33.742854999128099 ] } },
{ "type": "Feature", "properties": { "Name": "Mount Druitt Hospital", "Address": "75 Railway St", "Suburb": "Mount Druitt", "Postcode": 2770, "lat": -33.743232, "lon": 150.816642, "SSC_CODE16": "11248", "SSC_NAME16": "Dharruk" }, "geometry": { "type": "Point", "coordinates": [ 150.816642, -33.743231999128113 ] } },
{ "type": "Feature", "properties": { "Name": "Mount Druitt Hospital", "Address": "75 Railway St", "Suburb": "Mount Druitt", "Postcode": 2770, "lat": -33.772053, "lon": 150.811583, "SSC_CODE16": "12756", "SSC_NAME16": "Mount Druitt" }, "geometry": { "type": "Point", "coordinates": [ 150.811583, -33.772052999127723 ] } },
{ "type": "Feature", "properties": { "Name": "Mount Druitt Hospital", "Address": "75 Railway St", "Suburb": "Mount Druitt", "Postcode": 2770, "lat": -33.743504, "lon": 150.822682, "SSC_CODE16": "11886", "SSC_NAME16": "Hebersham" }, "geometry": { "type": "Point", "coordinates": [ 150.822682, -33.743503999128095 ] } },
{ "type": "Feature", "properties": { "Name": "Mount Druitt Hospital", "Address": "75 Railway St", "Suburb": "Mount Druitt", "Postcode": 2770, "lat": -33.781673, "lon": 150.813667, "SSC_CODE16": "12633", "SSC_NAME16": "Minchinbury" }, "geometry": { "type": "Point", "coordinates": [ 150.813667, -33.781672999127622 ] } },
{ "type": "Feature", "properties": { "Name": "Mount Druitt Hospital", "Address": "75 Railway St", "Suburb": "Mount Druitt", "Postcode": 2770, "lat": -33.736938, "lon": 150.799824, "SSC_CODE16": "12307", "SSC_NAME16": "Lethbridge Park" }, "geometry": { "type": "Point", "coordinates": [ 150.799824, -33.736937999128187 ] } },
{ "type": "Feature", "properties": { "Name": "Mount Druitt Hospital", "Address": "75 Railway St", "Suburb": "Mount Druitt", "Postcode": 2770, "lat": -33.729373, "lon": 150.808375, "SSC_CODE16": "13523", "SSC_NAME16": "Shalvey" }, "geometry": { "type": "Point", "coordinates": [ 150.808375, -33.729372999128273 ] } },
{ "type": "Feature", "properties": { "Name": "Mount Druitt Hospital", "Address": "75 Railway St", "Suburb": "Mount Druitt", "Postcode": 2770, "lat": -33.766434, "lon": 150.816989, "SSC_CODE16": "12756", "SSC_NAME16": "Mount Druitt" }, "geometry": { "type": "Point", "coordinates": [ 150.816989, -33.766433999127798 ] } },
{ "type": "Feature", "properties": { "Name": "Springwood Hospital", "Address": "Huntley Grange Road", "Suburb": "Springwood", "Postcode": 2777, "lat": -33.705288, "lon": 150.584919, "SSC_CODE16": "14069", "SSC_NAME16": "Valley Heights" }, "geometry": { "type": "Point", "coordinates": [ 150.584919, -33.705287999128586 ] } },
{ "type": "Feature", "properties": { "Name": "Springwood Hospital", "Address": "Huntley Grange Road", "Suburb": "Springwood", "Postcode": 2777, "lat": -33.673276, "lon": 150.61911, "SSC_CODE16": "14334", "SSC_NAME16": "Winmalee" }, "geometry": { "type": "Point", "coordinates": [ 150.61911, -33.673275999128983 ] } },
{ "type": "Feature", "properties": { "Name": "Springwood Hospital", "Address": "Huntley Grange Road", "Suburb": "Springwood", "Postcode": 2777, "lat": -33.695065, "lon": 150.624083, "SSC_CODE16": "14502", "SSC_NAME16": "Yellow Rock (Blue Mountains - NSW)" }, "geometry": { "type": "Point", "coordinates": [ 150.624083, -33.695064999128697 ] } },
{ "type": "Feature", "properties": { "Name": "Springwood Hospital", "Address": "Huntley Grange Road", "Suburb": "Springwood", "Postcode": 2777, "lat": -33.700645, "lon": 150.55875, "SSC_CODE16": "13629", "SSC_NAME16": "Springwood (NSW)" }, "geometry": { "type": "Point", "coordinates": [ 150.55875, -33.700644999128627 ] } },
{ "type": "Feature", "properties": { "Name": "Springwood Hospital", "Address": "Huntley Grange Road", "Suburb": "Springwood", "Postcode": 2777, "lat": -33.665114, "lon": 150.650802, "SSC_CODE16": "11872", "SSC_NAME16": "Hawkesbury Heights" }, "geometry": { "type": "Point", "coordinates": [ 150.650802, -33.665113999129098 ] } },
{ "type": "Feature", "properties": { "Name": "Springwood Hospital", "Address": "Huntley Grange Road", "Suburb": "Springwood", "Postcode": 2777, "lat": -33.712081, "lon": 150.592445, "SSC_CODE16": "13691", "SSC_NAME16": "Sun Valley (NSW)" }, "geometry": { "type": "Point", "coordinates": [ 150.592445, -33.712080999128503 ] } },
{ "type": "Feature", "properties": { "Name": "Blue Mountains District ANZAC Memorial Hospital", "Address": "Cnr Woodlands Road and Great Western Hwy", "Suburb": "Katoomba", "Postcode": 2780, "lat": -33.714149, "lon": 150.330827, "SSC_CODE16": "12309", "SSC_NAME16": "Leura" }, "geometry": { "type": "Point", "coordinates": [ 150.330827, -33.714148999128462 ] } },
{ "type": "Feature", "properties": { "Name": "Blue Mountains District ANZAC Memorial Hospital", "Address": "Cnr Woodlands Road and Great Western Hwy", "Suburb": "Katoomba", "Postcode": 2780, "lat": -33.672526, "lon": 150.280742, "SSC_CODE16": "12553", "SSC_NAME16": "Medlow Bath" }, "geometry": { "type": "Point", "coordinates": [ 150.280742, -33.672525999128965 ] } },
{ "type": "Feature", "properties": { "Name": "Blue Mountains District ANZAC Memorial Hospital", "Address": "Cnr Woodlands Road and Great Western Hwy", "Suburb": "Katoomba", "Postcode": 2780, "lat": -33.68806, "lon": 150.315011, "SSC_CODE16": "12077", "SSC_NAME16": "Katoomba" }, "geometry": { "type": "Point", "coordinates": [ 150.315011, -33.688059999128789 ] } },
{ "type": "Feature", "properties": { "Name": "Blue Mountains District ANZAC Memorial Hospital", "Address": "Cnr Woodlands Road and Great Western Hwy", "Suburb": "Katoomba", "Postcode": 2780, "lat": -33.714043, "lon": 150.311589, "SSC_CODE16": "12077", "SSC_NAME16": "Katoomba" }, "geometry": { "type": "Point", "coordinates": [ 150.311589, -33.714042999128473 ] } },
{ "type": "Feature", "properties": { "Name": "Lithgow Integrated Health Service", "Address": "Col Drewe Drive", "Suburb": "Lithgow", "Postcode": 2790, "lat": -33.47489, "lon": 150.1773, "SSC_CODE16": "11077", "SSC_NAME16": "Corney Town" }, "geometry": { "type": "Point", "coordinates": [ 150.1773, -33.474889999131506 ] } },
{ "type": "Feature", "properties": { "Name": "Lithgow Integrated Health Service", "Address": "Col Drewe Drive", "Suburb": "Lithgow", "Postcode": 2790, "lat": -33.365624, "lon": 150.428803, "SSC_CODE16": "14350", "SSC_NAME16": "Wollangambe" }, "geometry": { "type": "Point", "coordinates": [ 150.428803, -33.365623999132914 ] } },
{ "type": "Feature", "properties": { "Name": "Lithgow Integrated Health Service", "Address": "Col Drewe Drive", "Suburb": "Lithgow", "Postcode": 2790, "lat": -33.495736, "lon": 150.15021, "SSC_CODE16": "13531", "SSC_NAME16": "Sheedys Gully" }, "geometry": { "type": "Point", "coordinates": [ 150.15021, -33.495735999131234 ] } },
{ "type": "Feature", "properties": { "Name": "Lithgow Integrated Health Service", "Address": "Col Drewe Drive", "Suburb": "Lithgow", "Postcode": 2790, "lat": -33.548476, "lon": 150.154588, "SSC_CODE16": "11861", "SSC_NAME16": "Hartley (NSW)" }, "geometry": { "type": "Point", "coordinates": [ 150.154588, -33.548475999130567 ] } },
{ "type": "Feature", "properties": { "Name": "Lithgow Integrated Health Service", "Address": "Col Drewe Drive", "Suburb": "Lithgow", "Postcode": 2790, "lat": -33.491005, "lon": 150.176015, "SSC_CODE16": "11264", "SSC_NAME16": "Doctors Gap" }, "geometry": { "type": "Point", "coordinates": [ 150.176015, -33.491004999131306 ] } },
{ "type": "Feature", "properties": { "Name": "Lithgow Integrated Health Service", "Address": "Col Drewe Drive", "Suburb": "Lithgow", "Postcode": 2790, "lat": -33.468424, "lon": 150.168076, "SSC_CODE16": "12732", "SSC_NAME16": "Morts Estate" }, "geometry": { "type": "Point", "coordinates": [ 150.168076, -33.468423999131588 ] } },
{ "type": "Feature", "properties": { "Name": "Lithgow Integrated Health Service", "Address": "Col Drewe Drive", "Suburb": "Lithgow", "Postcode": 2790, "lat": -33.651781, "lon": 150.135829, "SSC_CODE16": "11583", "SSC_NAME16": "Ganbenang" }, "geometry": { "type": "Point", "coordinates": [ 150.135829, -33.651780999129251 ] } },
{ "type": "Feature", "properties": { "Name": "Lithgow Integrated Health Service", "Address": "Col Drewe Drive", "Suburb": "Lithgow", "Postcode": 2790, "lat": -33.456482, "lon": 150.172201, "SSC_CODE16": "13655", "SSC_NAME16": "State Mine Gully" }, "geometry": { "type": "Point", "coordinates": [ 150.172201, -33.456481999131746 ] } },
{ "type": "Feature", "properties": { "Name": "Lithgow Integrated Health Service", "Address": "Col Drewe Drive", "Suburb": "Lithgow", "Postcode": 2790, "lat": -33.535511, "lon": 150.233807, "SSC_CODE16": "11862", "SSC_NAME16": "Hartley Vale" }, "geometry": { "type": "Point", "coordinates": [ 150.233807, -33.535510999130729 ] } },
{ "type": "Feature", "properties": { "Name": "Lithgow Integrated Health Service", "Address": "Col Drewe Drive", "Suburb": "Lithgow", "Postcode": 2790, "lat": -33.469948, "lon": 150.154968, "SSC_CODE16": "10950", "SSC_NAME16": "Cobar Park" }, "geometry": { "type": "Point", "coordinates": [ 150.154968, -33.469947999131584 ] } },
{ "type": "Feature", "properties": { "Name": "Lithgow Integrated Health Service", "Address": "Col Drewe Drive", "Suburb": "Lithgow", "Postcode": 2790, "lat": -33.483955, "lon": 150.176542, "SSC_CODE16": "14064", "SSC_NAME16": "Vale Of Clwydd" }, "geometry": { "type": "Point", "coordinates": [ 150.176542, -33.483954999131399 ] } },
{ "type": "Feature", "properties": { "Name": "Lithgow Integrated Health Service", "Address": "Col Drewe Drive", "Suburb": "Lithgow", "Postcode": 2790, "lat": -33.620702, "lon": 150.187891, "SSC_CODE16": "12065", "SSC_NAME16": "Kanimbla (NSW)" }, "geometry": { "type": "Point", "coordinates": [ 150.187891, -33.620701999129643 ] } },
{ "type": "Feature", "properties": { "Name": "Lithgow Integrated Health Service", "Address": "Col Drewe Drive", "Suburb": "Lithgow", "Postcode": 2790, "lat": -33.484868, "lon": 150.154533, "SSC_CODE16": "12347", "SSC_NAME16": "Lithgow" }, "geometry": { "type": "Point", "coordinates": [ 150.154533, -33.484867999131367 ] } },
{ "type": "Feature", "properties": { "Name": "Lithgow Integrated Health Service", "Address": "Col Drewe Drive", "Suburb": "Lithgow", "Postcode": 2790, "lat": -33.471048, "lon": 150.178208, "SSC_CODE16": "13055", "SSC_NAME16": "Oakey Park" }, "geometry": { "type": "Point", "coordinates": [ 150.178208, -33.471047999131557 ] } },
{ "type": "Feature", "properties": { "Name": "Lithgow Integrated Health Service", "Address": "Col Drewe Drive", "Suburb": "Lithgow", "Postcode": 2790, "lat": -33.47156, "lon": 150.154148, "SSC_CODE16": "12544", "SSC_NAME16": "McKellars Park" }, "geometry": { "type": "Point", "coordinates": [ 150.154148, -33.471559999131543 ] } },
{ "type": "Feature", "properties": { "Name": "Lithgow Integrated Health Service", "Address": "Col Drewe Drive", "Suburb": "Lithgow", "Postcode": 2790, "lat": -33.47971, "lon": 150.145293, "SSC_CODE16": "11895", "SSC_NAME16": "Hermitage Flat" }, "geometry": { "type": "Point", "coordinates": [ 150.145293, -33.47970999913143 ] } },
{ "type": "Feature", "properties": { "Name": "Lithgow Integrated Health Service", "Address": "Col Drewe Drive", "Suburb": "Lithgow", "Postcode": 2790, "lat": -33.571701, "lon": 150.208607, "SSC_CODE16": "12352", "SSC_NAME16": "Little Hartley" }, "geometry": { "type": "Point", "coordinates": [ 150.208607, -33.571700999130265 ] } },
{ "type": "Feature", "properties": { "Name": "Lithgow Integrated Health Service", "Address": "Col Drewe Drive", "Suburb": "Lithgow", "Postcode": 2790, "lat": -33.479311, "lon": 150.215559, "SSC_CODE16": "10919", "SSC_NAME16": "Clarence" }, "geometry": { "type": "Point", "coordinates": [ 150.215559, -33.479310999131457 ] } },
{ "type": "Feature", "properties": { "Name": "Lithgow Integrated Health Service", "Address": "Col Drewe Drive", "Suburb": "Lithgow", "Postcode": 2790, "lat": -33.512259, "lon": 150.149759, "SSC_CODE16": "11867", "SSC_NAME16": "Hassans Walls" }, "geometry": { "type": "Point", "coordinates": [ 150.149759, -33.512258999131028 ] } },
{ "type": "Feature", "properties": { "Name": "Lithgow Integrated Health Service", "Address": "Col Drewe Drive", "Suburb": "Lithgow", "Postcode": 2790, "lat": -33.480068, "lon": 150.157987, "SSC_CODE16": "12347", "SSC_NAME16": "Lithgow" }, "geometry": { "type": "Point", "coordinates": [ 150.157987, -33.48006799913145 ] } },
{ "type": "Feature", "properties": { "Name": "Lithgow Integrated Health Service", "Address": "Col Drewe Drive", "Suburb": "Lithgow", "Postcode": 2790, "lat": -33.495525, "lon": 150.136672, "SSC_CODE16": "12360", "SSC_NAME16": "Littleton" }, "geometry": { "type": "Point", "coordinates": [ 150.136672, -33.495524999131241 ] } }
]
}
